zipcode,score,name,latitude,longitude
1701,0.5411197896,"FRAMINGHAM, MA 01701",42.32,-71.43
1702,0.54285882,"FRAMINGHAM, MA 01702",42.29,-71.43
1720,0.5656623587,"ACTON, MA 01720",42.48,-71.44
1742,0.5201836806,"CONCORD, MA 01742",42.46,-71.37
1752,0.8646890113,"MARLBOROUGH, MA 01752",42.35,-71.55
1760,0.7034348318,"NATICK, MA 01760",42.29,-71.35
1801,0.7894180915,"WOBURN, MA 01801",42.49,-71.15
1803,0.5866764703,"BURLINGTON, MA 01803",42.5,-71.2
1810,0.6115065475,"ANDOVER, MA 01810",42.65,-71.16
1876,0.5351694582,"TEWKSBURY, MA 01876",42.6,-71.22
1880,0.5791505323,"WAKEFIELD, MA 01880",42.5,-71.07
1906,0.6109179478,"SAUGUS, MA 01906",42.46,-71.01
1915,0.5627204324,"BEVERLY, MA 01915",42.56,-70.87
1923,0.557718716,"DANVERS, MA 01923",42.57,-70.95
1950,0.5222327056,"NEWBURYPORT, MA 01950",42.81,-70.88
1960,0.7882617597,"PEABODY, MA 01960",42.53,-70.96
1970,0.6772127462,"SALEM, MA 01970",42.52,-70.9
2021,0.6725451107,"CANTON, MA 02021",42.17,-71.13
2026,0.7875039772,"DEDHAM, MA 02026",42.24,-71.17
2038,0.537453793,"FRANKLIN, MA 02038",42.09,-71.41
2043,0.5913902735,"HINGHAM, MA 02043",42.23,-70.89
2062,0.6885113018,"NORWOOD, MA 02062",42.19,-71.2
2090,0.5549537713,"WESTWOOD, MA 02090",42.22,-71.21
2108,0.7953343622,"BOSTON, MA 02108",42.36,-71.07
2109,0.7289238691,"BOSTON, MA 02109",42.36,-71.05
2110,0.5209588528,"BOSTON, MA 02110",42.36,-71.05
2114,0.8157747019,"BOSTON, MA 02114",42.36,-71.07
2116,1,"BOSTON, MA 02116",42.35,-71.08
2127,0.5219353736,"BOSTON, MA 02127",42.33,-71.05
2129,0.5130188863,"CHARLESTOWN, MA 02129",42.38,-71.06
2132,0.7828699622,"WEST ROXBURY, MA 02132",42.28,-71.16
2135,0.7397162597,"BRIGHTON, MA 02135",42.35,-71.15
2138,0.7772674762,"CAMBRIDGE, MA 02138",42.38,-71.13
2139,0.6251006819,"CAMBRIDGE, MA 02139",42.36,-71.1
2148,0.6052964144,"MALDEN, MA 02148",42.43,-71.06
2155,0.7110333402,"MEDFORD, MA 02155",42.42,-71.11
2169,0.9011813676,"QUINCY, MA 02169",42.25,-71
2171,0.5331131847,"QUINCY, MA 02171",42.29,-71.02
2184,0.6423220629,"BRAINTREE, MA 02184",42.21,-71
2186,0.5415243472,"MILTON, MA 02186",42.25,-71.08
2210,0.5296829782,"BOSTON, MA 02210",42.35,-71.04
2301,0.5084058882,"BROCKTON, MA 02301",42.08,-71.04
2339,0.5396889826,"HANOVER, MA 02339",42.12,-70.86
2360,0.6833619862,"PLYMOUTH, MA 02360",41.9,-70.63
2445,0.5725062989,"BROOKLINE, MA 02445",42.33,-71.13
2446,0.5457745691,"BROOKLINE, MA 02446",42.34,-71.12
2451,0.6602257371,"WALTHAM, MA 02451",42.39,-71.25
2452,0.6059808103,"WALTHAM, MA 02452",42.39,-71.22
2453,0.5100899757,"WALTHAM, MA 02453",42.37,-71.24
2459,0.5437576573,"NEWTON CENTER, MA 02459",42.32,-71.19
2467,0.5641309935,"CHESTNUT HILL, MA 02467",42.32,-71.16
2472,0.5927961883,"WATERTOWN, MA 02472",42.37,-71.18
2474,0.5282640514,"ARLINGTON, MA 02474",42.42,-71.15
2481,0.8332818941,"WELLESLEY HILLS, MA 02481",42.31,-71.27
2494,0.508394643,"NEEDHAM HEIGHTS, MA 02494",42.3,-71.23
3079,0.570132657,"SALEM, NH 03079",42.79,-71.22
3103,0.5749988282,"MANCHESTER, NH 03103",42.97,-71.45
3104,0.5374951552,"MANCHESTER, NH 03104",43.01,-71.45
3801,0.7043573113,"PORTSMOUTH, NH 03801",43.07,-70.78
3820,0.5084063318,"DOVER, NH 03820",43.19,-70.88
6405,0.7251575507,"BRANFORD, CT 06405",41.28,-72.81
6410,0.6522131442,"CHESHIRE, CT 06410",41.51,-72.91
6437,0.5041964597,"GUILFORD, CT 06437",41.31,-72.7
6443,0.5474300878,"MADISON, CT 06443",41.3,-72.6
6450,0.7388786008,"MERIDEN, CT 06450",41.53,-72.78
6460,1,"MILFORD, CT 06460",41.22,-73.05
6470,0.556464587,"NEWTOWN, CT 06470",41.4,-73.31
6473,0.6826977243,"NORTH HAVEN, CT 06473",41.38,-72.86
6477,0.5925609458,"ORANGE, CT 06477",41.28,-73.02
6484,0.7008749714,"SHELTON, CT 06484",41.31,-73.13
6492,0.8089199084,"WALLINGFORD, CT 06492",41.46,-72.82
6511,0.9190733528,"NEW HAVEN, CT 06511",41.32,-72.93
6512,0.559099109,"EAST HAVEN, CT 06512",41.28,-72.88
6513,0.5033397867,"NEW HAVEN, CT 06513",41.32,-72.88
6514,0.5771081006,"HAMDEN, CT 06514",41.36,-72.94
6516,0.6219231257,"WEST HAVEN, CT 06516",41.27,-72.96
6517,0.5461897193,"HAMDEN, CT 06517",41.35,-72.91
6518,0.545414571,"HAMDEN, CT 06518",41.42,-72.91
6525,0.5088434973,"WOODBRIDGE, CT 06525",41.35,-73.01
6611,0.5754264917,"TRUMBULL, CT 06611",41.25,-73.21
6705,0.6656838346,"WATERBURY, CT 06705",41.55,-73
6708,0.7151527617,"WATERBURY, CT 06708",41.55,-73.06
6762,0.5510213504,"MIDDLEBURY, CT 06762",41.53,-73.12
6770,0.5646845863,"NAUGATUCK, CT 06770",41.49,-73.05
6801,0.5059435448,"BETHEL, CT 06801",41.38,-73.4
6804,0.6025925304,"BROOKFIELD, CT 06804",41.46,-73.4
6810,0.6898776596,"DANBURY, CT 06810",41.39,-73.45
6811,0.6845497259,"DANBURY, CT 06811",41.42,-73.47
6820,0.5905150745,"DARIEN, CT 06820",41.08,-73.48
6824,0.6739541445,"FAIRFIELD, CT 06824",41.16,-73.26
6830,1,"GREENWICH, CT 06830",41.03,-73.63
6831,0.7481717948,"GREENWICH, CT 06831",41.07,-73.66
6850,0.5772725959,"NORWALK, CT 06850",41.12,-73.44
6851,0.7828136302,"NORWALK, CT 06851",41.13,-73.41
6880,0.7606769966,"WESTPORT, CT 06880",41.14,-73.35
6897,0.631095863,"WILTON, CT 06897",41.2,-73.43
6901,0.504285194,"STAMFORD, CT 06901",41.05,-73.54
6902,0.8492245672,"STAMFORD, CT 06902",41.05,-73.54
6905,0.7491754736,"STAMFORD, CT 06905",41.08,-73.55
7083,0.5133437306,"UNION, NJ 07083",40.7,-74.27
7302,0.5045102194,"JERSEY CITY, NJ 07302",40.72,-74.05
7724,0.5042404591,"EATONTOWN, NJ 07724",40.3,-74.07
7728,0.5009857272,"FREEHOLD, NJ 07728",40.24,-74.28
7960,0.5885574307,"MORRISTOWN, NJ 07960",40.79,-74.48
8002,0.7463202477,"CHERRY HILL, NJ 08002",39.93,-75.02
8003,0.6158078057,"CHERRY HILL, NJ 08003",39.88,-74.97
8016,0.5465902049,"BURLINGTON, NJ 08016",40.07,-74.84
8021,0.5026405796,"CLEMENTON, NJ 08021",39.81,-75
8034,0.515526019,"CHERRY HILL, NJ 08034",39.91,-75
8043,0.6466387589,"VOORHEES, NJ 08043",39.85,-74.96
8053,0.781649417,"MARLTON, NJ 08053",39.88,-74.9
8054,0.9195986277,"MOUNT LAUREL, NJ 08054",39.95,-74.9
8055,0.5357910248,"MEDFORD, NJ 08055",39.86,-74.82
8080,0.5819136341,"SEWELL, NJ 08080",39.75,-75.1
8081,0.6768936839,"SICKLERVILLE, NJ 08081",39.74,-74.99
8094,0.5819094947,"WILLIAMSTOWN, NJ 08094",39.66,-74.97
8096,0.6842356247,"WEST DEPTFORD, NJ 08096",39.83,-75.13
8109,0.5754685002,"MERCHANTVILLE, NJ 08109",39.95,-75.05
8540,0.6770603495,"PRINCETON, NJ 08540",40.36,-74.64
8701,0.707230066,"LAKEWOOD, NJ 08701",40.08,-74.21
8873,0.5294513753,"SOMERSET, NJ 08873",40.51,-74.51
10001,0.7610923782,"NEW YORK, NY 10001",40.75,-74
10003,0.7897458911,"NEW YORK, NY 10003",40.73,-73.99
10010,0.6351750722,"NEW YORK, NY 10010",40.74,-73.98
10011,0.741076505,"NEW YORK, NY 10011",40.74,-74
10012,0.6711575494,"NEW YORK, NY 10012",40.73,-74
10013,0.7289762159,"NEW YORK, NY 10013",40.72,-74
10014,0.5605154309,"NEW YORK, NY 10014",40.73,-74.01
10016,0.8551231743,"NEW YORK, NY 10016",40.75,-73.98
10017,0.615435974,"NEW YORK, NY 10017",40.75,-73.97
10018,0.5118455199,"NEW YORK, NY 10018",40.76,-73.99
10019,0.6718474629,"NEW YORK, NY 10019",40.77,-73.99
10021,0.6078937804,"NEW YORK, NY 10021",40.77,-73.96
10022,1,"NEW YORK, NY 10022",40.76,-73.97
10023,0.6187014767,"NEW YORK, NY 10023",40.78,-73.98
10024,0.5244292599,"NEW YORK, NY 10024",40.79,-73.98
10025,0.6008688527,"NEW YORK, NY 10025",40.8,-73.97
10128,0.6548101324,"NEW YORK, NY 10128",40.78,-73.95
10314,0.5049134471,"STATEN ISLAND, NY 10314",40.61,-74.15
10977,0.5689487357,"SPRING VALLEY, NY 10977",41.12,-74.04
11021,0.5026872562,"GREAT NECK, NY 11021",40.79,-73.73
11201,0.7178187511,"BROOKLYN, NY 11201",40.7,-73.99
11204,0.516697054,"BROOKLYN, NY 11204",40.62,-73.98
11206,0.5235746949,"BROOKLYN, NY 11206",40.7,-73.94
11211,0.7797476585,"BROOKLYN, NY 11211",40.71,-73.96
11219,0.5687419272,"BROOKLYN, NY 11219",40.63,-74
11223,0.5583412328,"BROOKLYN, NY 11223",40.6,-73.97
11229,0.5597666849,"BROOKLYN, NY 11229",40.6,-73.94
11230,0.5801221777,"BROOKLYN, NY 11230",40.62,-73.97
11234,0.6176485577,"BROOKLYN, NY 11234",40.62,-73.92
11530,0.5985211709,"GARDEN CITY, NY 11530",40.73,-73.64
11743,0.5269439039,"HUNTINGTON, NY 11743",40.87,-73.41
18901,0.5801688217,"DOYLESTOWN, PA 18901",40.31,-75.14
18940,0.6773397279,"NEWTOWN, PA 18940",40.24,-74.94
18951,0.6206128874,"QUAKERTOWN, PA 18951",40.44,-75.35
18966,0.6586356413,"SOUTHAMPTON, PA 18966",40.19,-75.01
18974,0.6420508483,"WARMINSTER, PA 18974",40.21,-75.09
19002,0.6756122013,"AMBLER, PA 19002",40.17,-75.21
19003,0.5308363762,"ARDMORE, PA 19003",40,-75.3
19004,0.5163565465,"BALA CYNWYD, PA 19004",40.01,-75.23
19006,0.5775576906,"HUNTINGDON VALLEY, PA 19006",40.13,-75.06
19008,0.517376459,"BROOMALL, PA 19008",39.98,-75.36
19010,0.6695172149,"BRYN MAWR, PA 19010",40.02,-75.33
19020,0.7091923369,"BENSALEM, PA 19020",40.1,-74.94
19034,0.5314373522,"FORT WASHINGTON, PA 19034",40.14,-75.2
19038,0.5614580803,"GLENSIDE, PA 19038",40.1,-75.17
19044,0.5210328587,"HORSHAM, PA 19044",40.19,-75.14
19046,0.6322314592,"JENKINTOWN, PA 19046",40.1,-75.11
19047,0.6113966871,"LANGHORNE, PA 19047",40.18,-74.91
19053,0.6333665337,"FEASTERVILLE TREVOSE, PA 19053",40.15,-74.98
19063,0.7549214877,"MEDIA, PA 19063",39.92,-75.4
19064,0.6992509264,"SPRINGFIELD, PA 19064",39.93,-75.34
19067,0.7657007296,"MORRISVILLE, PA 19067",40.21,-74.82
19073,0.7457504951,"NEWTOWN SQUARE, PA 19073",39.98,-75.42
19083,0.534563224,"HAVERTOWN, PA 19083",39.98,-75.31
19087,0.8225269179,"WAYNE, PA 19087",40.06,-75.4
19090,0.5411388827,"WILLOW GROVE, PA 19090",40.15,-75.12
19096,0.515365786,"WYNNEWOOD, PA 19096",39.99,-75.27
19103,1,"PHILADELPHIA, PA 19103",39.95,-75.17
19106,0.7067043074,"PHILADELPHIA, PA 19106",39.95,-75.15
19114,0.6408006005,"PHILADELPHIA, PA 19114",40.06,-75
19118,0.5674992617,"PHILADELPHIA, PA 19118",40.07,-75.21
19119,0.533556828,"PHILADELPHIA, PA 19119",40.06,-75.19
19123,0.5374514562,"PHILADELPHIA, PA 19123",39.96,-75.15
19129,0.5204274974,"PHILADELPHIA, PA 19129",40.01,-75.19
19130,0.613625815,"PHILADELPHIA, PA 19130",39.97,-75.17
19131,0.5144902079,"PHILADELPHIA, PA 19131",39.98,-75.22
19136,0.5305549378,"PHILADELPHIA, PA 19136",40.04,-75.03
19144,0.508658821,"PHILADELPHIA, PA 19144",40.03,-75.17
19145,0.5730827909,"PHILADELPHIA, PA 19145",39.92,-75.18
19146,0.5679843944,"PHILADELPHIA, PA 19146",39.94,-75.18
19147,0.6646365755,"PHILADELPHIA, PA 19147",39.94,-75.16
19148,0.5348077527,"PHILADELPHIA, PA 19148",39.92,-75.16
19149,0.5840628921,"PHILADELPHIA, PA 19149",40.04,-75.07
19154,0.7130182746,"PHILADELPHIA, PA 19154",40.09,-74.98
19317,0.5830307295,"CHADDS FORD, PA 19317",39.86,-75.6
19320,0.5591209579,"COATESVILLE, PA 19320",39.98,-75.83
19335,0.595968225,"DOWNINGTOWN, PA 19335",40.02,-75.72
19341,0.8181400857,"EXTON, PA 19341",40.04,-75.64
19355,0.6961281373,"MALVERN, PA 19355",40.04,-75.53
19380,0.9464136758,"WEST CHESTER, PA 19380",39.98,-75.59
19382,0.8285643069,"WEST CHESTER, PA 19382",39.94,-75.6
19401,0.6504272279,"NORRISTOWN, PA 19401",40.12,-75.34
19403,0.8655721379,"NORRISTOWN, PA 19403",40.14,-75.39
19406,0.7476917413,"KING OF PRUSSIA, PA 19406",40.09,-75.38
19422,0.6970750057,"BLUE BELL, PA 19422",40.16,-75.28
19425,0.5374135336,"CHESTER SPRINGS, PA 19425",40.1,-75.65
19426,0.6335396696,"COLLEGEVILLE, PA 19426",40.19,-75.45
19428,0.5972395841,"CONSHOHOCKEN, PA 19428",40.08,-75.31
19438,0.5410262173,"HARLEYSVILLE, PA 19438",40.27,-75.39
19440,0.5843740424,"HATFIELD, PA 19440",40.28,-75.29
19446,0.77473957,"LANSDALE, PA 19446",40.24,-75.29
19454,0.5074154912,"NORTH WALES, PA 19454",40.22,-75.25
19460,0.7036339329,"PHOENIXVILLE, PA 19460",40.13,-75.52
19462,0.5537275498,"PLYMOUTH MEETING, PA 19462",40.12,-75.29
19464,0.6133968364,"POTTSTOWN, PA 19464",40.25,-75.63
19701,0.5691842134,"BEAR, DE 19701",39.6,-75.69
19702,0.689538352,"NEWARK, DE 19702",39.63,-75.71
19707,0.6021656785,"HOCKESSIN, DE 19707",39.78,-75.69
19709,0.7137379817,"MIDDLETOWN, DE 19709",39.47,-75.7
19711,0.9001388139,"NEWARK, DE 19711",39.7,-75.74
19720,0.6799792915,"NEW CASTLE, DE 19720",39.67,-75.59
19801,0.5221314012,"WILMINGTON, DE 19801",39.74,-75.55
19803,0.6812144438,"WILMINGTON, DE 19803",39.79,-75.53
19806,0.5366152073,"WILMINGTON, DE 19806",39.76,-75.56
19807,0.652378758,"WILMINGTON, DE 19807",39.78,-75.6
19808,0.7630842281,"WILMINGTON, DE 19808",39.74,-75.66
19810,0.7004172202,"WILMINGTON, DE 19810",39.82,-75.5
20001,0.6264019786,"WASHINGTON, DC 20001",38.91,-77.02
20002,0.7016264142,"WASHINGTON, DC 20002",38.9,-76.99
20003,0.7251630038,"WASHINGTON, DC 20003",38.88,-76.99
20007,0.9532307293,"WASHINGTON, DC 20007",38.91,-77.07
20008,0.7147086634,"WASHINGTON, DC 20008",38.93,-77.06
20009,0.7447949601,"WASHINGTON, DC 20009",38.92,-77.04
20011,0.6093776606,"WASHINGTON, DC 20011",38.95,-77.02
20015,0.6502748386,"WASHINGTON, DC 20015",38.97,-77.07
20016,0.7678433005,"WASHINGTON, DC 20016",38.94,-77.09
20036,0.8065392521,"WASHINGTON, DC 20036",38.91,-77.04
20109,0.5143803848,"MANASSAS, VA 20109",38.79,-77.52
20110,0.6801948237,"MANASSAS, VA 20110",38.75,-77.48
20111,0.5275886934,"MANASSAS, VA 20111",38.76,-77.44
20120,0.5350426247,"CENTREVILLE, VA 20120",38.85,-77.45
20132,0.5411148091,"PURCELLVILLE, VA 20132",39.15,-77.72
20147,0.7767110463,"ASHBURN, VA 20147",39.04,-77.49
20151,0.7108279899,"CHANTILLY, VA 20151",38.9,-77.44
20155,0.6569570355,"GAINESVILLE, VA 20155",38.8,-77.62
20164,0.6506742532,"STERLING, VA 20164",39.01,-77.39
20165,0.5843259715,"STERLING, VA 20165",39.04,-77.39
20166,0.6920904967,"STERLING, VA 20166",38.99,-77.43
20170,0.7134568428,"HERNDON, VA 20170",38.98,-77.38
20171,0.6988881219,"HERNDON, VA 20171",38.93,-77.4
20176,0.6946762731,"LEESBURG, VA 20176",39.13,-77.53
20190,0.6355710021,"RESTON, VA 20190",38.96,-77.35
20191,0.7054522333,"RESTON, VA 20191",38.93,-77.35
20601,0.5519767143,"WALDORF, MD 20601",38.62,-76.87
20603,0.5392464964,"WALDORF, MD 20603",38.63,-76.96
20646,0.6836658568,"LA PLATA, MD 20646",38.53,-76.99
20705,0.7633187007,"BELTSVILLE, MD 20705",39.05,-76.91
20706,0.7640440001,"LANHAM, MD 20706",38.96,-76.85
20707,0.7282864116,"LAUREL, MD 20707",39.1,-76.87
20715,0.7598596975,"BOWIE, MD 20715",38.98,-76.74
20720,0.5343003821,"BOWIE, MD 20720",38.98,-76.79
20721,0.5086318533,"BOWIE, MD 20721",38.92,-76.8
20735,0.7024994845,"CLINTON, MD 20735",38.75,-76.9
20740,0.7223604118,"COLLEGE PARK, MD 20740",39,-76.93
20747,0.5701080226,"DISTRICT HEIGHTS, MD 20747",38.85,-76.89
20748,0.5591154871,"TEMPLE HILLS, MD 20748",38.82,-76.94
20759,0.534081254,"FULTON, MD 20759",39.16,-76.92
20770,0.5285194377,"GREENBELT, MD 20770",39,-76.88
20772,0.5941423916,"UPPER MARLBORO, MD 20772",38.79,-76.78
20774,0.796573486,"UPPER MARLBORO, MD 20774",38.89,-76.8
20814,0.918965287,"BETHESDA, MD 20814",39,-77.1
20815,0.7654661674,"CHEVY CHASE, MD 20815",38.98,-77.08
20817,0.6584088943,"BETHESDA, MD 20817",39,-77.14
20850,1,"ROCKVILLE, MD 20850",39.09,-77.17
20852,0.957471699,"ROCKVILLE, MD 20852",39.05,-77.12
20854,0.7349698208,"POTOMAC, MD 20854",39.04,-77.2
20855,0.5180076767,"DERWOOD, MD 20855",39.13,-77.14
20874,0.6286345016,"GERMANTOWN, MD 20874",39.16,-77.28
20877,0.5092106965,"GAITHERSBURG, MD 20877",39.14,-77.19
20878,0.7096334606,"GAITHERSBURG, MD 20878",39.12,-77.24
20879,0.6090529473,"GAITHERSBURG, MD 20879",39.17,-77.18
20895,0.5629447328,"KENSINGTON, MD 20895",39.03,-77.08
20902,0.5198069555,"SILVER SPRING, MD 20902",39.04,-77.05
20904,0.6136081397,"SILVER SPRING, MD 20904",39.07,-76.97
20910,0.8184634206,"SILVER SPRING, MD 20910",39,-77.03
21014,0.5523309998,"BEL AIR, MD 21014",39.54,-76.35
21030,0.8034975713,"COCKEYSVILLE, MD 21030",39.48,-76.65
21037,0.5018357304,"EDGEWATER, MD 21037",38.92,-76.54
21042,0.5307760961,"ELLICOTT CITY, MD 21042",39.27,-76.87
21043,0.5228880573,"ELLICOTT CITY, MD 21043",39.26,-76.8
21044,0.5339244073,"COLUMBIA, MD 21044",39.21,-76.88
21045,0.7204253408,"COLUMBIA, MD 21045",39.2,-76.82
21046,0.6607532778,"COLUMBIA, MD 21046",39.17,-76.84
21054,0.5492934172,"GAMBRILLS, MD 21054",39.04,-76.68
21061,0.6508135552,"GLEN BURNIE, MD 21061",39.16,-76.63
21075,0.5819793938,"ELKRIDGE, MD 21075",39.2,-76.76
21076,0.5023475524,"HANOVER, MD 21076",39.16,-76.72
21093,0.8199238604,"LUTHERVILLE TIMONIUM, MD 21093",39.44,-76.63
21108,0.597362943,"MILLERSVILLE, MD 21108",39.1,-76.62
21113,0.5529072172,"ODENTON, MD 21113",39.08,-76.71
21114,0.5737161323,"CROFTON, MD 21114",39.01,-76.68
21117,0.9138223576,"OWINGS MILLS, MD 21117",39.42,-76.78
21122,0.6608588801,"PASADENA, MD 21122",39.13,-76.52
21136,0.6062125523,"REISTERSTOWN, MD 21136",39.47,-76.82
21152,0.5612887256,"SPARKS GLENCOE, MD 21152",39.54,-76.67
21157,0.5955261629,"WESTMINSTER, MD 21157",39.56,-76.99
21204,0.7632633326,"TOWSON, MD 21204",39.41,-76.63
21208,0.8286568032,"PIKESVILLE, MD 21208",39.38,-76.73
21210,0.6045492914,"BALTIMORE, MD 21210",39.35,-76.63
21220,0.5120117042,"MIDDLE RIVER, MD 21220",39.34,-76.41
21222,0.5027475966,"DUNDALK, MD 21222",39.26,-76.51
21224,0.6430732709,"BALTIMORE, MD 21224",39.28,-76.55
21227,0.5605273153,"HALETHORPE, MD 21227",39.24,-76.68
21228,0.7021689093,"CATONSVILLE, MD 21228",39.28,-76.74
21230,0.5574138505,"BALTIMORE, MD 21230",39.27,-76.63
21234,0.5762366009,"PARKVILLE, MD 21234",39.39,-76.54
21236,0.6509953845,"NOTTINGHAM, MD 21236",39.39,-76.49
21244,0.5541929032,"WINDSOR MILL, MD 21244",39.33,-76.76
21286,0.6749550164,"TOWSON, MD 21286",39.4,-76.58
21401,1,"ANNAPOLIS, MD 21401",38.99,-76.53
21701,0.7077319114,"FREDERICK, MD 21701",39.43,-77.38
21702,0.5779256814,"FREDERICK, MD 21702",39.45,-77.44
21703,0.5939151986,"FREDERICK, MD 21703",39.38,-77.45
21784,0.6186505759,"SYKESVILLE, MD 21784",39.4,-76.96
21921,0.5950203114,"ELKTON, MD 21921",39.63,-75.85
22003,0.6459455474,"ANNANDALE, VA 22003",38.83,-77.22
22030,0.9219076379,"FAIRFAX, VA 22030",38.85,-77.33
22031,0.7356974935,"FAIRFAX, VA 22031",38.86,-77.26
22033,0.5983257075,"FAIRFAX, VA 22033",38.87,-77.38
22042,0.6971450834,"FALLS CHURCH, VA 22042",38.87,-77.19
22043,0.5329104949,"FALLS CHURCH, VA 22043",38.9,-77.2
22079,0.6561250582,"LORTON, VA 22079",38.7,-77.21
22101,0.750354109,"MC LEAN, VA 22101",38.93,-77.17
22102,0.6861403825,"MC LEAN, VA 22102",38.94,-77.22
22150,0.549643403,"SPRINGFIELD, VA 22150",38.78,-77.18
22180,0.6381721538,"VIENNA, VA 22180",38.89,-77.26
22182,0.7985970864,"VIENNA, VA 22182",38.93,-77.26
22191,0.5461300992,"WOODBRIDGE, VA 22191",38.63,-77.27
22192,0.7641753082,"WOODBRIDGE, VA 22192",38.68,-77.3
22193,0.5357168355,"WOODBRIDGE, VA 22193",38.64,-77.34
22203,0.509702858,"ARLINGTON, VA 22203",38.87,-77.11
22209,0.5231074285,"ARLINGTON, VA 22209",38.89,-77.08
22304,0.5486970243,"ALEXANDRIA, VA 22304",38.82,-77.11
22310,0.5505474536,"ALEXANDRIA, VA 22310",38.79,-77.12
22312,0.598146691,"ALEXANDRIA, VA 22312",38.82,-77.15
22314,0.9873926253,"ALEXANDRIA, VA 22314",38.81,-77.05
22315,0.5231469181,"ALEXANDRIA, VA 22315",38.76,-77.15
22401,0.7260975219,"FREDERICKSBURG, VA 22401",38.3,-77.48
22406,0.6005429643,"FREDERICKSBURG, VA 22406",38.38,-77.54
22407,0.8972314819,"FREDERICKSBURG, VA 22407",38.27,-77.56
22408,0.8352762458,"FREDERICKSBURG, VA 22408",38.24,-77.46
22408,0.6489279964,"FREDERICKSBURG, VA 22408",38.24,-77.46
22554,0.6180296688,"STAFFORD, VA 22554",38.45,-77.39
22556,0.6716400626,"STAFFORD, VA 22556",38.48,-77.48
23005,0.6205777171,"ASHLAND, VA 23005",37.76,-77.48
23059,0.6759013989,"GLEN ALLEN, VA 23059",37.69,-77.55
23060,0.816025772,"GLEN ALLEN, VA 23060",37.66,-77.53
23111,0.5955988799,"MECHANICSVILLE, VA 23111",37.61,-77.3
23112,0.7278007373,"MIDLOTHIAN, VA 23112",37.43,-77.65
23113,0.8471795053,"MIDLOTHIAN, VA 23113",37.53,-77.65
23114,0.7144151815,"MIDLOTHIAN, VA 23114",37.48,-77.65
23116,0.6553765912,"MECHANICSVILLE, VA 23116",37.66,-77.37
23139,0.6361423659,"POWHATAN, VA 23139",37.55,-77.91
23185,0.9630039263,"WILLIAMSBURG, VA 23185",37.25,-76.69
23220,0.545040034,"RICHMOND, VA 23220",37.55,-77.46
23221,0.5565810157,"RICHMOND, VA 23221",37.56,-77.49
23223,0.5528728652,"RICHMOND, VA 23223",37.55,-77.4
23224,0.5281376672,"RICHMOND, VA 23224",37.5,-77.46
23225,0.8794514906,"RICHMOND, VA 23225",37.52,-77.5
23226,1,"RICHMOND, VA 23226",37.58,-77.52
23227,0.6398768468,"RICHMOND, VA 23227",37.6,-77.45
23228,0.8296132131,"HENRICO, VA 23228",37.62,-77.49
23229,0.9699876667,"HENRICO, VA 23229",37.59,-77.57
23230,0.7442428111,"RICHMOND, VA 23230",37.58,-77.49
23233,0.7866627513,"HENRICO, VA 23233",37.64,-77.62
23235,0.9693464321,"RICHMOND, VA 23235",37.52,-77.57
23236,0.8072987811,"RICHMOND, VA 23236",37.47,-77.59
23238,0.8221595427,"HENRICO, VA 23238",37.61,-77.62
23294,0.7429265084,"HENRICO, VA 23294",37.63,-77.54
23805,0.5405437274,"PETERSBURG, VA 23805",37.16,-77.39
23831,0.7930770903,"CHESTER, VA 23831",37.35,-77.44
23832,0.5528402251,"CHESTERFIELD, VA 23832",37.4,-77.58
23834,0.5144874135,"COLONIAL HEIGHTS, VA 23834",37.27,-77.4
23836,0.505910071,"CHESTER, VA 23836",37.34,-77.35
23901,0.5099857817,"FARMVILLE, VA 23901",37.31,-78.4
27330,0.6788526937,"SANFORD, NC 27330",35.5,-79.18
27502,0.5502730201,"APEX, NC 27502",35.73,-78.87
27502,0.5222512868,"APEX, NC 27502",35.73,-78.87
27511,0.8130819422,"CARY, NC 27511",35.77,-78.78
27513,0.8142250692,"CARY, NC 27513",35.8,-78.8
27514,0.7278825285,"CHAPEL HILL, NC 27514",35.95,-79.04
27516,0.5453414379,"CHAPEL HILL, NC 27516",35.91,-79.1
27517,0.8278252492,"CHAPEL HILL, NC 27517",35.9,-79.02
27518,0.9190007562,"CARY, NC 27518",35.73,-78.77
27519,0.5179522742,"CARY, NC 27519",35.81,-78.88
27520,0.6301075253,"CLAYTON, NC 27520",35.63,-78.46
27526,0.5615155304,"FUQUAY VARINA, NC 27526",35.58,-78.8
27529,0.5203120528,"GARNER, NC 27529",35.68,-78.6
27560,0.8305320265,"MORRISVILLE, NC 27560",35.85,-78.83
27560,0.7887026877,"MORRISVILLE, NC 27560",35.85,-78.83
27587,1,"WAKE FOREST, NC 27587",35.97,-78.52
27596,0.6531243914,"YOUNGSVILLE, NC 27596",36.02,-78.47
27603,0.715155718,"RALEIGH, NC 27603",35.71,-78.66
27604,0.6012795197,"RALEIGH, NC 27604",35.82,-78.58
27606,0.5300662438,"RALEIGH, NC 27606",35.76,-78.72
27607,0.8783446544,"RALEIGH, NC 27607",35.8,-78.71
27609,0.7606183315,"RALEIGH, NC 27609",35.84,-78.63
27612,0.9139257185,"RALEIGH, NC 27612",35.85,-78.7
27613,0.6949279544,"RALEIGH, NC 27613",35.9,-78.71
27613,0.6577709327,"RALEIGH, NC 27613",35.9,-78.71
27614,0.6975541386,"RALEIGH, NC 27614",35.95,-78.6
27615,0.9292025322,"RALEIGH, NC 27615",35.9,-78.63
27616,0.600290304,"RALEIGH, NC 27616",35.87,-78.55
27617,0.5305278851,"RALEIGH, NC 27617",35.91,-78.78
27703,0.6270437802,"DURHAM, NC 27703",35.96,-78.83
27703,0.5966811226,"DURHAM, NC 27703",35.96,-78.83
27704,0.5466754404,"DURHAM, NC 27704",36.04,-78.86
27705,0.8802048318,"DURHAM, NC 27705",36.02,-78.96
27707,0.9525520041,"DURHAM, NC 27707",35.96,-78.94
27713,1,"DURHAM, NC 27713",35.91,-78.92
27713,0.9501552875,"DURHAM, NC 27713",35.91,-78.92
28025,0.6305159191,"CONCORD, NC 28025",35.4,-80.56
28027,0.5477149635,"CONCORD, NC 28027",35.4,-80.66
28031,0.6137241726,"CORNELIUS, NC 28031",35.47,-80.88
28054,0.6290456104,"GASTONIA, NC 28054",35.26,-81.15
28078,0.9630327872,"HUNTERSVILLE, NC 28078",35.41,-80.86
28079,0.5809934477,"INDIAN TRAIL, NC 28079",35.08,-80.63
28105,0.8543795347,"MATTHEWS, NC 28105",35.12,-80.71
28110,0.6001909781,"MONROE, NC 28110",35.04,-80.56
28173,0.652551356,"WAXHAW, NC 28173",34.95,-80.74
28202,0.7329308273,"CHARLOTTE, NC 28202",35.23,-80.84
28203,0.753038442,"CHARLOTTE, NC 28203",35.21,-80.86
28207,0.713512047,"CHARLOTTE, NC 28207",35.2,-80.83
28209,0.5235045315,"CHARLOTTE, NC 28209",35.18,-80.85
28210,0.7593702313,"CHARLOTTE, NC 28210",35.13,-80.86
28211,0.9203687973,"CHARLOTTE, NC 28211",35.17,-80.79
28217,0.5775995573,"CHARLOTTE, NC 28217",35.17,-80.9
28226,0.7342176316,"CHARLOTTE, NC 28226",35.11,-80.82
28227,0.6818066661,"CHARLOTTE, NC 28227",35.19,-80.66
28262,0.7992414219,"CHARLOTTE, NC 28262",35.33,-80.74
28269,0.6777488023,"CHARLOTTE, NC 28269",35.33,-80.8
28270,0.6486299178,"CHARLOTTE, NC 28270",35.11,-80.76
28277,1,"CHARLOTTE, NC 28277",35.05,-80.82
29732,0.6917551138,"ROCK HILL, SC 29732",34.97,-81.05
30004,0.6750921177,"ALPHARETTA, GA 30004",34.12,-84.29
30005,0.636447534,"ALPHARETTA, GA 30005",34.08,-84.23
30009,0.6011614083,"ALPHARETTA, GA 30009",34.07,-84.3
30022,0.8529826781,"ALPHARETTA, GA 30022",34.03,-84.25
30024,0.7701936273,"SUWANEE, GA 30024",34.05,-84.08
30030,0.5917893454,"DECATUR, GA 30030",33.77,-84.29
30040,0.5358671577,"CUMMING, GA 30040",34.21,-84.17
30041,0.6027729591,"CUMMING, GA 30041",34.19,-84.11
30043,0.7030396656,"LAWRENCEVILLE, GA 30043",34,-84.02
30047,0.5999743542,"LILBURN, GA 30047",33.87,-84.12
30062,0.7032194051,"MARIETTA, GA 30062",33.99,-84.48
30064,0.5520878196,"MARIETTA, GA 30064",33.94,-84.61
30066,0.6334284691,"MARIETTA, GA 30066",34.02,-84.52
30067,0.7282833893,"MARIETTA, GA 30067",33.93,-84.48
30068,0.5889769482,"MARIETTA, GA 30068",33.96,-84.45
30071,0.5354328002,"NORCROSS, GA 30071",33.94,-84.21
30075,0.7274172973,"ROSWELL, GA 30075",34.05,-84.38
30076,0.7106424864,"ROSWELL, GA 30076",34.03,-84.32
30080,0.6423051819,"SMYRNA, GA 30080",33.87,-84.5
30084,0.5811566403,"TUCKER, GA 30084",33.85,-84.22
30092,0.763233221,"NORCROSS, GA 30092",33.97,-84.23
30096,0.6415549048,"DULUTH, GA 30096",33.98,-84.15
30097,0.7429829079,"DULUTH, GA 30097",34.02,-84.15
30101,0.5719761681,"ACWORTH, GA 30101",34.05,-84.69
30114,0.5998405573,"CANTON, GA 30114",34.23,-84.51
30126,0.5458556803,"MABLETON, GA 30126",33.82,-84.55
30135,0.5820750698,"DOUGLASVILLE, GA 30135",33.7,-84.73
30144,0.6477425976,"KENNESAW, GA 30144",34.03,-84.6
30188,0.7560714274,"WOODSTOCK, GA 30188",34.11,-84.48
30214,0.6025666643,"FAYETTEVILLE, GA 30214",33.49,-84.48
30236,0.5233161935,"JONESBORO, GA 30236",33.53,-84.33
30253,0.6642802688,"MCDONOUGH, GA 30253",33.45,-84.18
30263,0.5349261165,"NEWNAN, GA 30263",33.39,-84.82
30265,0.5054138702,"NEWNAN, GA 30265",33.4,-84.72
30269,0.6651984293,"PEACHTREE CITY, GA 30269",33.4,-84.57
30281,0.6923925205,"STOCKBRIDGE, GA 30281",33.55,-84.22
30305,0.8633200881,"ATLANTA, GA 30305",33.83,-84.39
30306,0.5668604486,"ATLANTA, GA 30306",33.79,-84.35
30307,0.531861091,"ATLANTA, GA 30307",33.77,-84.34
30309,0.7991089845,"ATLANTA, GA 30309",33.79,-84.39
30318,0.544326326,"ATLANTA, GA 30318",33.79,-84.44
30319,0.7856849716,"ATLANTA, GA 30319",33.87,-84.34
30324,0.566522668,"ATLANTA, GA 30324",33.82,-84.36
30327,0.7819411859,"ATLANTA, GA 30327",33.86,-84.42
30328,1,"ATLANTA, GA 30328",33.93,-84.38
30338,0.7704193896,"ATLANTA, GA 30338",33.94,-84.32
30339,0.8488997663,"ATLANTA, GA 30339",33.88,-84.47
30341,0.6295096179,"ATLANTA, GA 30341",33.89,-84.29
30342,0.856935982,"ATLANTA, GA 30342",33.88,-84.37
30345,0.5249923508,"ATLANTA, GA 30345",33.85,-84.28
30349,0.5523299825,"ATLANTA, GA 30349",33.61,-84.5
30350,0.7169802893,"ATLANTA, GA 30350",33.98,-84.34
30518,0.5490778536,"BUFORD, GA 30518",34.12,-84.02
32701,0.5705290336,"ALTAMONTE SPRINGS, FL 32701",28.66,-81.37
32703,0.6110853954,"APOPKA, FL 32703",28.66,-81.5
32707,0.5579688147,"CASSELBERRY, FL 32707",28.66,-81.32
32708,0.5072963099,"WINTER SPRINGS, FL 32708",28.68,-81.28
32714,0.7440181213,"ALTAMONTE SPRINGS, FL 32714",28.66,-81.41
32720,0.5294954858,"DELAND, FL 32720",29.02,-81.33
32746,0.9297725133,"LAKE MARY, FL 32746",28.76,-81.34
32750,0.6337646959,"LONGWOOD, FL 32750",28.7,-81.35
32751,1,"MAITLAND, FL 32751",28.63,-81.36
32765,0.7723391129,"OVIEDO, FL 32765",28.65,-81.21
32771,0.6877161289,"SANFORD, FL 32771",28.8,-81.29
32789,0.8679546183,"WINTER PARK, FL 32789",28.6,-81.36
32792,0.6586658302,"WINTER PARK, FL 32792",28.61,-81.3
32801,0.8145588964,"ORLANDO, FL 32801",28.54,-81.37
32803,0.7829552772,"ORLANDO, FL 32803",28.56,-81.35
32804,0.6421192037,"ORLANDO, FL 32804",28.58,-81.39
32806,0.6688427261,"ORLANDO, FL 32806",28.51,-81.36
32808,0.5503543746,"ORLANDO, FL 32808",28.58,-81.44
32809,0.566081403,"ORLANDO, FL 32809",28.46,-81.39
32810,0.6024919835,"ORLANDO, FL 32810",28.62,-81.43
32814,0.5004637586,"ORLANDO, FL 32814",28.57,-81.33
32817,0.6188824408,"ORLANDO, FL 32817",28.59,-81.25
32818,0.5238197274,"ORLANDO, FL 32818",28.58,-81.49
32819,0.8505251042,"ORLANDO, FL 32819",28.46,-81.47
32826,0.5408793525,"ORLANDO, FL 32826",28.59,-81.19
32828,0.5248042599,"ORLANDO, FL 32828",28.53,-81.17
32835,0.6139254324,"ORLANDO, FL 32835",28.52,-81.48
33016,0.5589806944,"HIALEAH, FL 33016",25.89,-80.33
33021,0.7053065956,"HOLLYWOOD, FL 33021",26.02,-80.19
33024,0.5722124237,"HOLLYWOOD, FL 33024",26.02,-80.24
33027,0.6383771139,"HOLLYWOOD, FL 33027",25.98,-80.34
33062,0.6813273721,"POMPANO BEACH, FL 33062",26.24,-80.1
33063,0.6121757589,"POMPANO BEACH, FL 33063",26.25,-80.21
33064,0.6344612767,"POMPANO BEACH, FL 33064",26.28,-80.11
33065,0.6311467101,"POMPANO BEACH, FL 33065",26.27,-80.26
33067,0.5199428965,"POMPANO BEACH, FL 33067",26.3,-80.22
33071,0.5444365734,"POMPANO BEACH, FL 33071",26.24,-80.27
33073,0.50565204,"POMPANO BEACH, FL 33073",26.3,-80.19
33130,0.5116633614,"MIAMI, FL 33130",25.77,-80.2
33131,0.8065300738,"MIAMI, FL 33131",25.77,-80.19
33133,0.662580424,"MIAMI, FL 33133",25.73,-80.24
33134,1,"MIAMI, FL 33134",25.75,-80.27
33137,0.6160558503,"MIAMI, FL 33137",25.82,-80.19
33139,0.7013542312,"MIAMI BEACH, FL 33139",25.78,-80.14
33140,0.5755603863,"MIAMI BEACH, FL 33140",25.82,-80.13
33143,0.6139817894,"MIAMI, FL 33143",25.7,-80.3
33146,0.732454006,"MIAMI, FL 33146",25.72,-80.27
33155,0.5038373606,"MIAMI, FL 33155",25.74,-80.31
33156,0.8439692913,"MIAMI, FL 33156",25.67,-80.31
33157,0.6010917783,"MIAMI, FL 33157",25.61,-80.35
33162,0.5419153183,"MIAMI, FL 33162",25.93,-80.18
33166,0.6095674187,"MIAMI, FL 33166",25.82,-80.3
33173,0.5733317877,"MIAMI, FL 33173",25.7,-80.36
33176,0.6524193793,"MIAMI, FL 33176",25.66,-80.36
33178,0.6047695334,"MIAMI, FL 33178",25.84,-80.38
33180,0.5903378431,"MIAMI, FL 33180",25.96,-80.14
33186,0.6433096143,"MIAMI, FL 33186",25.66,-80.41
33301,0.893563107,"FORT LAUDERDALE, FL 33301",26.12,-80.13
33308,0.8174569257,"FORT LAUDERDALE, FL 33308",26.19,-80.11
33309,0.7513894608,"FORT LAUDERDALE, FL 33309",26.19,-80.17
33312,0.5040706496,"FORT LAUDERDALE, FL 33312",26.09,-80.18
33316,0.6462296216,"FORT LAUDERDALE, FL 33316",26.1,-80.13
33319,0.5107735092,"FORT LAUDERDALE, FL 33319",26.18,-80.22
33323,0.5416889086,"FORT LAUDERDALE, FL 33323",26.16,-80.31
33324,0.9561559405,"FORT LAUDERDALE, FL 33324",26.11,-80.27
33326,0.5286704514,"FORT LAUDERDALE, FL 33326",26.11,-80.37
33331,0.5723028683,"FORT LAUDERDALE, FL 33331",26.05,-80.36
33351,0.5583689502,"FORT LAUDERDALE, FL 33351",26.18,-80.28
33401,0.7594254013,"WEST PALM BEACH, FL 33401",26.71,-80.06
33408,0.7219231658,"NORTH PALM BEACH, FL 33408",26.84,-80.06
33409,0.5913466456,"WEST PALM BEACH, FL 33409",26.71,-80.1
33410,0.7486450307,"PALM BEACH GARDENS, FL 33410",26.84,-80.09
33411,0.5880942439,"WEST PALM BEACH, FL 33411",26.72,-80.22
33414,0.5967648341,"WELLINGTON, FL 33414",26.66,-80.25
33418,0.6802158178,"PALM BEACH GARDENS, FL 33418",26.85,-80.14
33431,0.8605121409,"BOCA RATON, FL 33431",26.38,-80.1
33432,0.6913339468,"BOCA RATON, FL 33432",26.35,-80.08
33433,0.5964246111,"BOCA RATON, FL 33433",26.35,-80.16
33442,0.5114009444,"DEERFIELD BEACH, FL 33442",26.31,-80.14
33445,0.5740696924,"DELRAY BEACH, FL 33445",26.46,-80.11
33446,0.5024643438,"DELRAY BEACH, FL 33446",26.45,-80.16
33458,0.6291744252,"JUPITER, FL 33458",26.92,-80.12
33467,0.6190596931,"LAKE WORTH, FL 33467",26.6,-80.17
33477,0.6632798929,"JUPITER, FL 33477",26.92,-80.08
33480,0.5965614141,"PALM BEACH, FL 33480",26.71,-80.04
33483,0.6544503407,"DELRAY BEACH, FL 33483",26.46,-80.07
33487,0.7023495652,"BOCA RATON, FL 33487",26.41,-80.09
34711,0.6600189238,"CLERMONT, FL 34711",28.54,-81.74
34741,0.5440237657,"KISSIMMEE, FL 34741",28.3,-81.42
34744,0.5180544594,"KISSIMMEE, FL 34744",28.31,-81.36
34748,0.5537490971,"LEESBURG, FL 34748",28.78,-81.88
34761,0.5596879332,"OCOEE, FL 34761",28.58,-81.53
34787,0.5223171805,"WINTER GARDEN, FL 34787",28.52,-81.6
40059,0.6714640448,"PROSPECT, KY 40059",38.35,-85.59
40204,0.5100098147,"LOUISVILLE, KY 40204",38.24,-85.73
40205,0.7003634535,"LOUISVILLE, KY 40205",38.22,-85.69
40206,0.5810319723,"LOUISVILLE, KY 40206",38.26,-85.7
40207,0.889553451,"LOUISVILLE, KY 40207",38.26,-85.65
40216,0.5091975924,"LOUISVILLE, KY 40216",38.19,-85.83
40218,0.5515416939,"LOUISVILLE, KY 40218",38.19,-85.66
40220,0.6951706836,"LOUISVILLE, KY 40220",38.22,-85.62
40222,0.8828209172,"LOUISVILLE, KY 40222",38.26,-85.61
40223,1,"LOUISVILLE, KY 40223",38.26,-85.55
40241,0.9043411537,"LOUISVILLE, KY 40241",38.31,-85.58
40243,0.5673989061,"LOUISVILLE, KY 40243",38.24,-85.54
40245,0.69120591,"LOUISVILLE, KY 40245",38.27,-85.47
40272,0.5729592043,"LOUISVILLE, KY 40272",38.09,-85.86
40291,0.6507676313,"LOUISVILLE, KY 40291",38.14,-85.59
40299,0.9831219006,"LOUISVILLE, KY 40299",38.18,-85.55
40601,0.5619938642,"FRANKFORT, KY 40601",38.2,-84.87
41011,0.6488090337,"COVINGTON, KY 41011",39.07,-84.52
41017,0.9346176001,"FT MITCHELL, KY 41017",39.03,-84.56
41042,0.891042073,"FLORENCE, KY 41042",38.99,-84.65
41071,0.5466573773,"NEWPORT, KY 41071",39.08,-84.49
41076,0.5735454597,"NEWPORT, KY 41076",39.02,-84.44
43015,0.5176537641,"DELAWARE, OH 43015",40.29,-83.07
43016,0.6429638398,"DUBLIN, OH 43016",40.1,-83.15
43017,1,"DUBLIN, OH 43017",40.11,-83.13
43026,0.9467402349,"HILLIARD, OH 43026",40.02,-83.16
43054,0.5376144159,"NEW ALBANY, OH 43054",40.08,-82.82
43065,0.7551714967,"POWELL, OH 43065",40.16,-83.09
43068,0.5489607347,"REYNOLDSBURG, OH 43068",39.96,-82.79
43081,0.936509891,"WESTERVILLE, OH 43081",40.11,-82.9
43082,0.7105381395,"WESTERVILLE, OH 43082",40.15,-82.91
43085,0.6701486961,"COLUMBUS, OH 43085",40.1,-83.02
43123,0.6482661297,"GROVE CITY, OH 43123",39.88,-83.07
43130,0.5823008901,"LANCASTER, OH 43130",39.71,-82.61
43147,0.5430156973,"PICKERINGTON, OH 43147",39.9,-82.76
43204,0.5491185528,"COLUMBUS, OH 43204",39.96,-83.08
43214,0.6825212399,"COLUMBUS, OH 43214",40.05,-83.02
43215,0.8186459506,"COLUMBUS, OH 43215",39.97,-83.01
43220,0.5626065313,"COLUMBUS, OH 43220",40.05,-83.07
43221,0.6308545367,"COLUMBUS, OH 43221",40.03,-83.08
43228,0.5180768316,"COLUMBUS, OH 43228",39.96,-83.13
43229,0.7592083752,"COLUMBUS, OH 43229",40.08,-82.97
43230,0.8168600139,"COLUMBUS, OH 43230",40.04,-82.87
43235,0.7535989902,"COLUMBUS, OH 43235",40.1,-83.05
44011,0.6419310311,"AVON, OH 44011",41.45,-82.02
44023,0.5976354117,"CHAGRIN FALLS, OH 44023",41.39,-81.31
44023,0.594740324,"CHAGRIN FALLS, OH 44023",41.39,-81.31
44024,0.5391815222,"CHARDON, OH 44024",41.58,-81.19
44035,0.7075946752,"ELYRIA, OH 44035",41.37,-82.11
44039,0.5892750342,"NORTH RIDGEVILLE, OH 44039",41.39,-82.01
44060,0.9634109801,"MENTOR, OH 44060",41.68,-81.33
44067,0.5093060129,"NORTHFIELD, OH 44067",41.31,-81.54
44070,0.7626831111,"NORTH OLMSTED, OH 44070",41.42,-81.92
44077,0.733620315,"PAINESVILLE, OH 44077",41.71,-81.24
44087,0.5565072006,"TWINSBURG, OH 44087",41.32,-81.45
44094,0.70398646,"WILLOUGHBY, OH 44094",41.63,-81.4
44095,0.5476246456,"EASTLAKE, OH 44095",41.65,-81.45
44107,0.6067099164,"LAKEWOOD, OH 44107",41.48,-81.8
44111,0.6899279713,"CLEVELAND, OH 44111",41.46,-81.78
44113,0.6331761737,"CLEVELAND, OH 44113",41.49,-81.7
44116,0.5700763215,"ROCKY RIVER, OH 44116",41.47,-81.85
44118,0.8105106317,"CLEVELAND, OH 44118",41.5,-81.56
44122,0.9569332566,"BEACHWOOD, OH 44122",41.47,-81.52
44124,0.8659192886,"CLEVELAND, OH 44124",41.51,-81.47
44125,0.6133450566,"CLEVELAND, OH 44125",41.41,-81.61
44126,0.5490268499,"CLEVELAND, OH 44126",41.44,-81.86
44128,0.5883357627,"CLEVELAND, OH 44128",41.44,-81.55
44130,0.9154246565,"CLEVELAND, OH 44130",41.38,-81.78
44131,0.8876879469,"INDEPENDENCE, OH 44131",41.39,-81.66
44133,0.6082144158,"NORTH ROYALTON, OH 44133",41.32,-81.75
44134,0.6249521512,"CLEVELAND, OH 44134",41.39,-81.7
44135,0.5271467301,"CLEVELAND, OH 44135",41.43,-81.8
44136,0.6654319732,"STRONGSVILLE, OH 44136",41.31,-81.81
44139,0.5168504063,"SOLON, OH 44139",41.38,-81.44
44141,0.5063417421,"BRECKSVILLE, OH 44141",41.3,-81.62
44141,0.503893122,"BRECKSVILLE, OH 44141",41.3,-81.62
44143,0.75848234,"CLEVELAND, OH 44143",41.55,-81.48
44144,0.5608487957,"CLEVELAND, OH 44144",41.44,-81.73
44145,0.8765667997,"WESTLAKE, OH 44145",41.46,-81.93
44146,0.5288661228,"BEDFORD, OH 44146",41.39,-81.53
44147,0.6529949059,"BROADVIEW HEIGHTS, OH 44147",41.32,-81.68
44212,0.5855132855,"BRUNSWICK, OH 44212",41.24,-81.83
44221,0.5077445075,"CUYAHOGA FALLS, OH 44221",41.14,-81.48
44223,0.5251319013,"CUYAHOGA FALLS, OH 44223",41.15,-81.51
44224,0.791698928,"STOW, OH 44224",41.17,-81.44
44236,0.6793153427,"HUDSON, OH 44236",41.25,-81.45
44240,0.5101343533,"KENT, OH 44240",41.15,-81.35
44256,0.8530937246,"MEDINA, OH 44256",41.14,-81.86
44256,0.8530725426,"MEDINA, OH 44256",41.14,-81.86
44313,0.6391735187,"AKRON, OH 44313",41.12,-81.57
44320,0.5315625402,"AKRON, OH 44320",41.08,-81.57
44321,0.5595215929,"AKRON, OH 44321",41.11,-81.65
44321,0.5570489252,"AKRON, OH 44321",41.11,-81.65
44333,1,"AKRON, OH 44333",41.15,-81.62
44333,1,"AKRON, OH 44333",41.15,-81.62
44685,0.5065200408,"UNIONTOWN, OH 44685",40.96,-81.43
44720,0.5864843036,"NORTH CANTON, OH 44720",40.89,-81.42
45005,0.5578113443,"FRANKLIN, OH 45005",39.55,-84.31
45005,0.526560173,"FRANKLIN, OH 45005",39.55,-84.31
45011,0.5817837128,"HAMILTON, OH 45011",39.4,-84.52
45014,0.7373505824,"FAIRFIELD, OH 45014",39.33,-84.55
45030,0.5002784034,"HARRISON, OH 45030",39.26,-84.77
45040,0.964526624,"MASON, OH 45040",39.35,-84.31
45044,0.6699973879,"MIDDLETOWN, OH 45044",39.48,-84.38
45066,0.7304565049,"SPRINGBORO, OH 45066",39.56,-84.22
45066,0.6908545476,"SPRINGBORO, OH 45066",39.56,-84.22
45069,0.8716208126,"WEST CHESTER, OH 45069",39.35,-84.41
45140,0.9148119394,"LOVELAND, OH 45140",39.26,-84.26
45150,0.5347761889,"MILFORD, OH 45150",39.17,-84.25
45202,0.5919892849,"CINCINNATI, OH 45202",39.11,-84.51
45208,0.6110229791,"CINCINNATI, OH 45208",39.14,-84.43
45209,0.5218693558,"CINCINNATI, OH 45209",39.15,-84.43
45211,0.670602847,"CINCINNATI, OH 45211",39.15,-84.6
45227,0.5259485734,"CINCINNATI, OH 45227",39.15,-84.39
45230,0.5064298639,"CINCINNATI, OH 45230",39.08,-84.39
45231,0.5148093556,"CINCINNATI, OH 45231",39.24,-84.55
45236,0.6737726116,"CINCINNATI, OH 45236",39.21,-84.4
45238,0.7252155515,"CINCINNATI, OH 45238",39.11,-84.61
45239,0.5937184368,"CINCINNATI, OH 45239",39.21,-84.57
45240,0.6726661755,"CINCINNATI, OH 45240",39.28,-84.53
45241,0.896192573,"CINCINNATI, OH 45241",39.28,-84.4
45242,1,"CINCINNATI, OH 45242",39.24,-84.36
45244,0.7181903774,"CINCINNATI, OH 45244",39.12,-84.33
45245,0.6260877901,"CINCINNATI, OH 45245",39.07,-84.27
45246,0.7395418004,"CINCINNATI, OH 45246",39.29,-84.47
45247,0.7468392437,"CINCINNATI, OH 45247",39.21,-84.64
45248,0.7453300284,"CINCINNATI, OH 45248",39.16,-84.65
45249,0.6565385527,"CINCINNATI, OH 45249",39.28,-84.33
45251,0.5180390634,"CINCINNATI, OH 45251",39.26,-84.59
45255,0.5510692038,"CINCINNATI, OH 45255",39.06,-84.33
45324,0.6667544593,"FAIRBORN, OH 45324",39.81,-84.02
45342,0.8063436716,"MIAMISBURG, OH 45342",39.63,-84.27
45342,0.7588226155,"MIAMISBURG, OH 45342",39.63,-84.27
45373,0.5287157246,"TROY, OH 45373",40.04,-84.21
45377,0.5838295464,"VANDALIA, OH 45377",39.89,-84.21
45402,0.6182505162,"DAYTON, OH 45402",39.76,-84.21
45414,0.5682637885,"DAYTON, OH 45414",39.82,-84.19
45419,0.5401752555,"DAYTON, OH 45419",39.71,-84.17
45420,0.6633104686,"DAYTON, OH 45420",39.72,-84.14
45424,0.8054323757,"DAYTON, OH 45424",39.84,-84.12
45429,0.8021610624,"DAYTON, OH 45429",39.69,-84.16
45431,0.800890223,"DAYTON, OH 45431",39.77,-84.09
45440,0.6273575017,"DAYTON, OH 45440",39.67,-84.11
45458,0.741664675,"DAYTON, OH 45458",39.61,-84.17
45458,0.7000959259,"DAYTON, OH 45458",39.61,-84.17
45459,1,"DAYTON, OH 45459",39.65,-84.17
46032,1,"CARMEL, IN 46032",39.97,-86.16
46033,0.5059917998,"CARMEL, IN 46033",39.98,-86.09
46037,0.5694678091,"FISHERS, IN 46037",39.96,-85.95
46038,0.6331415665,"FISHERS, IN 46038",39.97,-86.01
46060,0.5545807512,"NOBLESVILLE, IN 46060",40.04,-85.97
46062,0.5337777854,"NOBLESVILLE, IN 46062",40.06,-86.05
46074,0.5314463514,"WESTFIELD, IN 46074",40.03,-86.17
46112,0.5125209236,"BROWNSBURG, IN 46112",39.85,-86.39
46123,0.6553972869,"AVON, IN 46123",39.76,-86.39
46142,0.6686486563,"GREENWOOD, IN 46142",39.62,-86.15
46143,0.6938748163,"GREENWOOD, IN 46143",39.6,-86.13
46202,0.5145307088,"INDIANAPOLIS, IN 46202",39.78,-86.16
46205,0.5256734311,"INDIANAPOLIS, IN 46205",39.82,-86.14
46219,0.7097139211,"INDIANAPOLIS, IN 46219",39.78,-86.05
46220,0.9497783492,"INDIANAPOLIS, IN 46220",39.87,-86.12
46227,0.7179540293,"INDIANAPOLIS, IN 46227",39.68,-86.13
46236,0.5632743029,"INDIANAPOLIS, IN 46236",39.89,-85.96
46237,0.6557977627,"INDIANAPOLIS, IN 46237",39.68,-86.08
46240,0.8422266831,"INDIANAPOLIS, IN 46240",39.9,-86.13
46250,0.9069672138,"INDIANAPOLIS, IN 46250",39.91,-86.07
46254,0.563565912,"INDIANAPOLIS, IN 46254",39.84,-86.26
46256,0.7460295876,"INDIANAPOLIS, IN 46256",39.91,-86.02
46260,0.5298164875,"INDIANAPOLIS, IN 46260",39.9,-86.18
46268,0.5737855524,"INDIANAPOLIS, IN 46268",39.9,-86.23
46278,0.6227677423,"INDIANAPOLIS, IN 46278",39.9,-86.29
46307,0.5918750123,"CROWN POINT, IN 46307",41.42,-87.34
47130,0.6718726852,"JEFFERSONVILLE, IN 47130",38.31,-85.71
47150,0.6166101159,"NEW ALBANY, IN 47150",38.31,-85.83
47201,0.5665271616,"COLUMBUS, IN 47201",39.2,-85.93
51503,0.5435820935,"COUNCIL BLUFFS, IA 51503",41.25,-95.81
53005,1,"BROOKFIELD, WI 53005",43.06,-88.1
53012,0.5547255711,"CEDARBURG, WI 53012",43.3,-88
53022,0.7274852085,"GERMANTOWN, WI 53022",43.22,-88.12
53024,0.6152911665,"GRAFTON, WI 53024",43.32,-87.94
53027,0.5757524862,"HARTFORD, WI 53027",43.32,-88.37
53029,0.5757682994,"HARTLAND, WI 53029",43.13,-88.34
53045,0.9483848388,"BROOKFIELD, WI 53045",43.06,-88.15
53051,0.8823671802,"MENOMONEE FALLS, WI 53051",43.15,-88.11
53066,0.7031150752,"OCONOMOWOC, WI 53066",43.1,-88.49
53072,0.8408475316,"PEWAUKEE, WI 53072",43.08,-88.26
53090,0.5804835011,"WEST BEND, WI 53090",43.45,-88.18
53092,0.8285345427,"THIENSVILLE, WI 53092",43.22,-87.95
53095,0.7745572525,"WEST BEND, WI 53095",43.4,-88.18
53122,0.5975786978,"ELM GROVE, WI 53122",43.05,-88.09
53130,0.6014997971,"HALES CORNERS, WI 53130",42.94,-88.05
53132,0.8709282946,"FRANKLIN, WI 53132",42.9,-88.01
53150,0.5430445545,"MUSKEGO, WI 53150",42.9,-88.12
53151,0.7820330322,"NEW BERLIN, WI 53151",42.98,-88.09
53154,0.63567415,"OAK CREEK, WI 53154",42.88,-87.9
53186,0.8282796272,"WAUKESHA, WI 53186",43.02,-88.21
53188,0.9010581143,"WAUKESHA, WI 53188",43.02,-88.27
53202,0.9651101904,"MILWAUKEE, WI 53202",43.04,-87.9
53204,0.5657457188,"MILWAUKEE, WI 53204",43.02,-87.93
53207,0.6477697739,"MILWAUKEE, WI 53207",42.99,-87.9
53209,0.6725741839,"MILWAUKEE, WI 53209",43.12,-87.95
53211,0.5739642239,"MILWAUKEE, WI 53211",43.08,-87.89
53212,0.6552057855,"MILWAUKEE, WI 53212",43.07,-87.91
53213,0.5305210298,"MILWAUKEE, WI 53213",43.05,-88
53214,0.6903953423,"MILWAUKEE, WI 53214",43.02,-88.01
53216,0.5288350155,"MILWAUKEE, WI 53216",43.09,-87.97
53217,0.8477807612,"MILWAUKEE, WI 53217",43.14,-87.91
53219,0.5333129427,"MILWAUKEE, WI 53219",43,-87.99
53220,0.59493563,"MILWAUKEE, WI 53220",42.97,-87.99
53221,0.5737347702,"MILWAUKEE, WI 53221",42.95,-87.95
53222,0.750308841,"MILWAUKEE, WI 53222",43.08,-88.03
53223,0.9211298611,"MILWAUKEE, WI 53223",43.16,-87.99
53224,0.66450539,"MILWAUKEE, WI 53224",43.16,-88.04
53225,0.5420968521,"MILWAUKEE, WI 53225",43.12,-88.04
53226,0.8152327915,"MILWAUKEE, WI 53226",43.05,-88.04
53227,0.611796353,"MILWAUKEE, WI 53227",43,-88.04
53228,0.5346235533,"MILWAUKEE, WI 53228",42.97,-88.04
54016,0.7077323341,"HUDSON, WI 54016",44.98,-92.72
55016,0.6531247263,"COTTAGE GROVE, MN 55016",44.83,-92.94
55025,0.58490275,"FOREST LAKE, MN 55025",45.27,-92.99
55033,0.6521327327,"HASTINGS, MN 55033",44.73,-92.86
55044,0.7233404181,"LAKEVILLE, MN 55044",44.67,-93.26
55076,0.5218952621,"INVER GROVE HEIGHTS, MN 55076",44.85,-93.04
55082,0.6797626455,"STILLWATER, MN 55082",45.06,-92.83
55101,0.5621898654,"SAINT PAUL, MN 55101",44.95,-93.09
55102,0.5896150291,"SAINT PAUL, MN 55102",44.93,-93.12
55104,0.7539839466,"SAINT PAUL, MN 55104",44.95,-93.16
55109,0.7220410068,"SAINT PAUL, MN 55109",45.01,-93.02
55110,0.8383089196,"SAINT PAUL, MN 55110",45.08,-93.01
55112,0.7016563514,"SAINT PAUL, MN 55112",45.08,-93.2
55113,0.9464621415,"SAINT PAUL, MN 55113",45.01,-93.16
55116,0.7288201695,"SAINT PAUL, MN 55116",44.91,-93.17
55117,0.5147421376,"SAINT PAUL, MN 55117",44.99,-93.1
55118,0.8194428712,"SAINT PAUL, MN 55118",44.9,-93.1
55119,0.5708106419,"SAINT PAUL, MN 55119",44.95,-93.01
55120,0.5624281919,"SAINT PAUL, MN 55120",44.87,-93.15
55122,0.6615152496,"SAINT PAUL, MN 55122",44.8,-93.2
55124,0.7164440913,"SAINT PAUL, MN 55124",44.74,-93.2
55125,0.9123453595,"SAINT PAUL, MN 55125",44.92,-92.95
55126,0.5150376481,"SAINT PAUL, MN 55126",45.09,-93.13
55127,0.6192718934,"SAINT PAUL, MN 55127",45.08,-93.08
55128,0.8904761976,"SAINT PAUL, MN 55128",44.99,-92.97
55301,0.5289118589,"ALBERTVILLE, MN 55301",45.24,-93.66
55303,0.7119987335,"ANOKA, MN 55303",45.25,-93.41
55304,0.6105642813,"ANDOVER, MN 55304",45.25,-93.29
55305,0.6948826258,"HOPKINS, MN 55305",44.95,-93.43
55306,0.5363384617,"BURNSVILLE, MN 55306",44.73,-93.29
55311,0.5721648334,"OSSEO, MN 55311",45.1,-93.49
55317,0.5647283106,"CHANHASSEN, MN 55317",44.86,-93.55
55318,0.640748752,"CHASKA, MN 55318",44.81,-93.62
55330,0.6152581749,"ELK RIVER, MN 55330",45.32,-93.57
55331,0.6560600127,"EXCELSIOR, MN 55331",44.9,-93.59
55337,0.7773114077,"BURNSVILLE, MN 55337",44.77,-93.28
55343,0.677988882,"HOPKINS, MN 55343",44.92,-93.41
55344,0.7673358729,"EDEN PRAIRIE, MN 55344",44.86,-93.43
55345,0.5780046358,"MINNETONKA, MN 55345",44.92,-93.48
55369,0.7660051204,"OSSEO, MN 55369",45.12,-93.43
55372,0.5965885244,"PRIOR LAKE, MN 55372",44.71,-93.42
55378,0.565032299,"SAVAGE, MN 55378",44.76,-93.36
55379,0.725260567,"SHAKOPEE, MN 55379",44.78,-93.5
55387,0.5954620987,"WACONIA, MN 55387",44.85,-93.79
55391,0.6631494623,"WAYZATA, MN 55391",44.96,-93.53
55403,0.6539297053,"MINNEAPOLIS, MN 55403",44.97,-93.28
55406,0.6412921388,"MINNEAPOLIS, MN 55406",44.94,-93.22
55407,0.5180232824,"MINNEAPOLIS, MN 55407",44.94,-93.25
55408,0.6372785838,"MINNEAPOLIS, MN 55408",44.95,-93.29
55414,0.5761198797,"MINNEAPOLIS, MN 55414",44.98,-93.23
55416,1,"MINNEAPOLIS, MN 55416",44.95,-93.34
55418,0.5001440957,"MINNEAPOLIS, MN 55418",45.02,-93.24
55422,0.7380180519,"MINNEAPOLIS, MN 55422",45.01,-93.34
55423,0.695088464,"MINNEAPOLIS, MN 55423",44.88,-93.28
55426,0.5915290319,"MINNEAPOLIS, MN 55426",44.95,-93.38
55427,0.6294291562,"MINNEAPOLIS, MN 55427",45.01,-93.38
55428,0.6302211748,"MINNEAPOLIS, MN 55428",45.06,-93.38
55431,0.741669506,"MINNEAPOLIS, MN 55431",44.83,-93.31
55432,0.5825047254,"MINNEAPOLIS, MN 55432",45.1,-93.25
55433,0.777997362,"MINNEAPOLIS, MN 55433",45.16,-93.31
55435,0.5593345236,"MINNEAPOLIS, MN 55435",44.88,-93.33
55437,0.617774408,"MINNEAPOLIS, MN 55437",44.82,-93.34
55438,0.5522984788,"MINNEAPOLIS, MN 55438",44.83,-93.38
55439,0.68278459,"MINNEAPOLIS, MN 55439",44.88,-93.37
55441,0.7752655404,"MINNEAPOLIS, MN 55441",45,-93.42
55442,0.5267250551,"MINNEAPOLIS, MN 55442",45.05,-93.43
55446,0.5663237787,"MINNEAPOLIS, MN 55446",45.04,-93.48
55447,0.6138809508,"MINNEAPOLIS, MN 55447",45,-93.49
55448,0.5303135846,"MINNEAPOLIS, MN 55448",45.19,-93.3
55449,0.6818328667,"MINNEAPOLIS, MN 55449",45.17,-93.21
56303,0.5428774371,"SAINT CLOUD, MN 56303",45.57,-94.2
56379,0.558247393,"SAUK RAPIDS, MN 56379",45.61,-94.14
60004,0.5013041418,"ARLINGTON HEIGHTS, IL 60004",42.11,-87.98
60005,0.5527644722,"ARLINGTON HEIGHTS, IL 60005",42.06,-87.98
60010,0.5744885266,"BARRINGTON, IL 60010",42.16,-88.15
60014,0.5510676411,"CRYSTAL LAKE, IL 60014",42.23,-88.33
60015,0.5690695523,"DEERFIELD, IL 60015",42.17,-87.87
60018,0.571669823,"DES PLAINES, IL 60018",42.01,-87.89
60025,0.5115243931,"GLENVIEW, IL 60025",42.07,-87.82
60031,0.5544796121,"GURNEE, IL 60031",42.38,-87.94
60035,0.5217014104,"HIGHLAND PARK, IL 60035",42.18,-87.81
60045,0.5622600783,"LAKE FOREST, IL 60045",42.24,-87.86
60047,0.5465615124,"LAKE ZURICH, IL 60047",42.2,-88.06
60048,0.5058253286,"LIBERTYVILLE, IL 60048",42.29,-87.95
60056,0.513804823,"MOUNT PROSPECT, IL 60056",42.06,-87.94
60062,0.569777033,"NORTHBROOK, IL 60062",42.13,-87.85
60067,0.6086274148,"PALATINE, IL 60067",42.11,-88.06
60102,0.5630645987,"ALGONQUIN, IL 60102",42.16,-88.3
60123,0.5759266447,"ELGIN, IL 60123",42.04,-88.31
60126,0.6077816394,"ELMHURST, IL 60126",41.89,-87.94
60134,0.5512581055,"GENEVA, IL 60134",41.88,-88.33
60137,0.5560195614,"GLEN ELLYN, IL 60137",41.87,-88.06
60148,0.6952793077,"LOMBARD, IL 60148",41.87,-88.02
60173,0.559146316,"SCHAUMBURG, IL 60173",42.05,-88.05
60181,0.550077033,"VILLA PARK, IL 60181",41.88,-87.98
60187,0.5669140929,"WHEATON, IL 60187",41.87,-88.11
60201,0.5143556959,"EVANSTON, IL 60201",42.06,-87.7
60453,0.5795357499,"OAK LAWN, IL 60453",41.72,-87.75
60462,0.6377699306,"ORLAND PARK, IL 60462",41.62,-87.84
60515,0.6199194187,"DOWNERS GROVE, IL 60515",41.8,-88.02
60521,0.5105144628,"HINSDALE, IL 60521",41.8,-87.93
60523,0.553225622,"OAK BROOK, IL 60523",41.84,-87.96
60527,0.5437786204,"WILLOWBROOK, IL 60527",41.75,-87.93
60532,0.618901112,"LISLE, IL 60532",41.79,-88.08
60540,0.542375133,"NAPERVILLE, IL 60540",41.76,-88.14
60563,0.5921047486,"NAPERVILLE, IL 60563",41.8,-88.17
60605,0.6375603193,"CHICAGO, IL 60605",41.87,-87.63
60607,0.6867737947,"CHICAGO, IL 60607",41.88,-87.65
60610,0.5458145755,"CHICAGO, IL 60610",41.91,-87.63
60611,0.848558258,"CHICAGO, IL 60611",41.89,-87.62
60613,0.5718074976,"CHICAGO, IL 60613",41.95,-87.66
60614,1,"CHICAGO, IL 60614",41.92,-87.65
60616,0.5878151281,"CHICAGO, IL 60616",41.85,-87.63
60618,0.6481148663,"CHICAGO, IL 60618",41.95,-87.7
60622,0.5559237931,"CHICAGO, IL 60622",41.9,-87.68
60630,0.5528563653,"CHICAGO, IL 60630",41.97,-87.76
60631,0.678218442,"CHICAGO, IL 60631",42,-87.81
60634,0.5799479951,"CHICAGO, IL 60634",41.94,-87.8
60640,0.6796513089,"CHICAGO, IL 60640",41.97,-87.66
60643,0.5568179475,"CHICAGO, IL 60643",41.7,-87.66
60646,0.5720884247,"CHICAGO, IL 60646",41.99,-87.76
60647,0.5005329159,"CHICAGO, IL 60647",41.92,-87.7
60657,0.8135721489,"CHICAGO, IL 60657",41.94,-87.66
62002,0.5641239409,"ALTON, IL 62002",38.9,-90.16
62025,0.5785672437,"EDWARDSVILLE, IL 62025",38.81,-89.96
62062,0.502765553,"MARYVILLE, IL 62062",38.73,-89.96
62208,0.5470168236,"FAIRVIEW HEIGHTS, IL 62208",38.6,-90
62221,0.5556947901,"BELLEVILLE, IL 62221",38.53,-89.93
62226,0.642329301,"BELLEVILLE, IL 62226",38.54,-90
62234,0.553806811,"COLLINSVILLE, IL 62234",38.68,-90
62269,0.6248729412,"O FALLON, IL 62269",38.59,-89.91
63005,0.7192652881,"CHESTERFIELD, MO 63005",38.64,-90.63
63011,0.8736161675,"BALLWIN, MO 63011",38.6,-90.55
63017,0.9047655599,"CHESTERFIELD, MO 63017",38.65,-90.54
63021,0.7270198887,"BALLWIN, MO 63021",38.58,-90.53
63026,0.6780594895,"FENTON, MO 63026",38.51,-90.46
63031,0.5969564468,"FLORISSANT, MO 63031",38.8,-90.34
63033,0.6360641746,"FLORISSANT, MO 63033",38.79,-90.28
63043,0.5215890013,"MARYLAND HEIGHTS, MO 63043",38.73,-90.45
63090,0.5290214315,"WASHINGTON, MO 63090",38.54,-91.02
63105,0.7466439275,"SAINT LOUIS, MO 63105",38.64,-90.33
63108,0.5047604099,"SAINT LOUIS, MO 63108",38.64,-90.25
63109,0.5589221802,"SAINT LOUIS, MO 63109",38.59,-90.29
63116,0.5590584963,"SAINT LOUIS, MO 63116",38.58,-90.26
63119,0.6900139577,"SAINT LOUIS, MO 63119",38.59,-90.35
63122,0.7594046019,"SAINT LOUIS, MO 63122",38.58,-90.41
63123,0.6208855138,"SAINT LOUIS, MO 63123",38.55,-90.32
63124,0.5088281671,"SAINT LOUIS, MO 63124",38.64,-90.37
63127,0.5275700656,"SAINT LOUIS, MO 63127",38.54,-90.41
63128,0.6458680085,"SAINT LOUIS, MO 63128",38.5,-90.37
63129,0.6867008023,"SAINT LOUIS, MO 63129",38.47,-90.32
63130,0.5807184008,"SAINT LOUIS, MO 63130",38.67,-90.32
63131,0.8848135446,"SAINT LOUIS, MO 63131",38.62,-90.44
63139,0.6034345109,"SAINT LOUIS, MO 63139",38.61,-90.29
63141,1,"SAINT LOUIS, MO 63141",38.66,-90.46
63144,0.5538045722,"SAINT LOUIS, MO 63144",38.62,-90.35
63146,0.7751041691,"SAINT LOUIS, MO 63146",38.69,-90.45
63301,0.7405292991,"SAINT CHARLES, MO 63301",38.81,-90.5
63303,0.7555453902,"SAINT CHARLES, MO 63303",38.76,-90.54
63304,0.6469434531,"SAINT CHARLES, MO 63304",38.73,-90.65
63366,0.6681559644,"O FALLON, MO 63366",38.82,-90.72
63368,0.7530463866,"O FALLON, MO 63368",38.75,-90.73
63376,0.9138251086,"SAINT PETERS, MO 63376",38.78,-90.62
68022,0.5567469429,"ELKHORN, NE 68022",41.27,-96.24
68046,0.5683179185,"PAPILLION, NE 68046",41.15,-96.05
68106,0.5864660709,"OMAHA, NE 68106",41.24,-96
68114,0.9082832923,"OMAHA, NE 68114",41.26,-96.05
68116,0.8232911654,"OMAHA, NE 68116",41.3,-96.16
68118,0.5508324219,"OMAHA, NE 68118",41.26,-96.18
68124,0.5480748293,"OMAHA, NE 68124",41.24,-96.05
68127,0.7569521364,"OMAHA, NE 68127",41.2,-96.05
68128,0.5556535741,"LA VISTA, NE 68128",41.18,-96.06
68130,0.6844187092,"OMAHA, NE 68130",41.24,-96.19
68132,0.5771065923,"OMAHA, NE 68132",41.27,-96
68134,0.6529387093,"OMAHA, NE 68134",41.3,-96.05
68137,0.6533946129,"OMAHA, NE 68137",41.21,-96.12
68144,0.8513893442,"OMAHA, NE 68144",41.23,-96.11
68154,1,"OMAHA, NE 68154",41.27,-96.11
68164,0.7498498397,"OMAHA, NE 68164",41.3,-96.11
70001,0.869885684,"METAIRIE, LA 70001",29.99,-90.17
70002,0.9804132145,"METAIRIE, LA 70002",30.01,-90.16
70003,0.5105007229,"METAIRIE, LA 70003",30,-90.21
70005,0.753806346,"METAIRIE, LA 70005",30,-90.13
70006,0.6420611501,"METAIRIE, LA 70006",30.01,-90.19
70056,0.5405328555,"GRETNA, LA 70056",29.89,-90.03
70058,0.6550864045,"HARVEY, LA 70058",29.88,-90.07
70062,0.5033992291,"KENNER, LA 70062",29.99,-90.25
70065,0.9022128685,"KENNER, LA 70065",30.03,-90.25
70068,0.5261377064,"LA PLACE, LA 70068",30.07,-90.48
70072,0.576919223,"MARRERO, LA 70072",29.87,-90.11
70115,0.7250957346,"NEW ORLEANS, LA 70115",29.93,-90.1
70118,0.5731264648,"NEW ORLEANS, LA 70118",29.95,-90.12
70119,0.6255539513,"NEW ORLEANS, LA 70119",29.98,-90.09
70122,0.501286167,"NEW ORLEANS, LA 70122",30.01,-90.06
70123,0.9912711036,"NEW ORLEANS, LA 70123",29.95,-90.21
70124,0.604144558,"NEW ORLEANS, LA 70124",30,-90.11
70127,0.5429469007,"NEW ORLEANS, LA 70127",30.03,-89.98
70130,0.9235696257,"NEW ORLEANS, LA 70130",29.94,-90.07
70433,1,"COVINGTON, LA 70433",30.46,-90.11
70458,0.9679387181,"SLIDELL, LA 70458",30.27,-89.77
70460,0.59398713,"SLIDELL, LA 70460",30.3,-89.81
70461,0.6746837199,"SLIDELL, LA 70461",30.26,-89.73
70471,0.6789481784,"MANDEVILLE, LA 70471",30.4,-90.08
74008,0.5363237599,"BIXBY, OK 74008",35.95,-95.88
74012,0.9990456695,"BROKEN ARROW, OK 74012",36.05,-95.81
74014,0.5479165299,"BROKEN ARROW, OK 74014",36.06,-95.7
74055,0.7189287715,"OWASSO, OK 74055",36.28,-95.83
74105,0.6921396485,"TULSA, OK 74105",36.1,-95.97
74114,0.8018194887,"TULSA, OK 74114",36.13,-95.95
74133,1,"TULSA, OK 74133",36.04,-95.88
74135,0.9586244292,"TULSA, OK 74135",36.1,-95.92
74136,0.8511809555,"TULSA, OK 74136",36.06,-95.94
74137,0.9511276636,"TULSA, OK 74137",36.02,-95.93
74145,0.570492853,"TULSA, OK 74145",36.1,-95.89
74146,0.5104589256,"TULSA, OK 74146",36.1,-95.85
75001,0.5696197561,"ADDISON, TX 75001",32.96,-96.84
75002,0.5664130341,"ALLEN, TX 75002",33.1,-96.63
75006,0.5639075087,"CARROLLTON, TX 75006",32.96,-96.89
75013,0.588829692,"ALLEN, TX 75013",33.11,-96.69
75019,0.5360649589,"COPPELL, TX 75019",32.97,-96.98
75022,0.5653107829,"FLOWER MOUND, TX 75022",33.03,-97.1
75024,0.5790574637,"PLANO, TX 75024",33.08,-96.81
75028,0.587940458,"FLOWER MOUND, TX 75028",33.04,-97.06
75034,0.7984600737,"FRISCO, TX 75034",33.14,-96.85
75038,0.5007423707,"IRVING, TX 75038",32.87,-96.99
75039,0.5522310602,"IRVING, TX 75039",32.89,-96.95
75043,0.6001294322,"GARLAND, TX 75043",32.86,-96.6
75063,0.6715135009,"IRVING, TX 75063",32.92,-96.98
75067,0.5145645425,"LEWISVILLE, TX 75067",33.01,-97
75070,0.717558866,"MCKINNEY, TX 75070",33.17,-96.7
75074,0.5016350783,"PLANO, TX 75074",33.03,-96.68
75075,0.5429269887,"PLANO, TX 75075",33.02,-96.74
75080,0.7354930823,"RICHARDSON, TX 75080",32.97,-96.74
75081,0.706672683,"RICHARDSON, TX 75081",32.95,-96.71
75093,1,"PLANO, TX 75093",33.04,-96.81
75098,0.5500909851,"WYLIE, TX 75098",33.01,-96.54
75115,0.501812912,"DESOTO, TX 75115",32.6,-96.86
75150,0.5115003782,"MESQUITE, TX 75150",32.82,-96.63
75205,0.5198207091,"DALLAS, TX 75205",32.84,-96.8
75206,0.527669025,"DALLAS, TX 75206",32.83,-96.77
75214,0.5131855555,"DALLAS, TX 75214",32.83,-96.75
75218,0.5581856143,"DALLAS, TX 75218",32.84,-96.7
75225,0.6519121504,"DALLAS, TX 75225",32.86,-96.79
75229,0.6959590446,"DALLAS, TX 75229",32.89,-96.86
75230,0.6922384788,"DALLAS, TX 75230",32.9,-96.79
75231,0.5376604955,"DALLAS, TX 75231",32.88,-96.75
75234,0.5693899673,"DALLAS, TX 75234",32.92,-96.89
75243,0.5933914427,"DALLAS, TX 75243",32.91,-96.74
75244,0.8241734503,"DALLAS, TX 75244",32.92,-96.84
75248,0.6512421047,"DALLAS, TX 75248",32.97,-96.79
75252,0.7259609245,"DALLAS, TX 75252",33,-96.79
75254,0.6042833049,"DALLAS, TX 75254",32.94,-96.8
76013,0.6135518223,"ARLINGTON, TX 76013",32.72,-97.15
76017,0.5411653901,"ARLINGTON, TX 76017",32.66,-97.16
76021,0.5399610154,"BEDFORD, TX 76021",32.85,-97.13
76028,0.6210581934,"BURLESON, TX 76028",32.53,-97.31
76034,0.7168205183,"COLLEYVILLE, TX 76034",32.89,-97.15
76051,0.6664154617,"GRAPEVINE, TX 76051",32.92,-97.08
76053,0.5159323681,"HURST, TX 76053",32.82,-97.18
76054,0.5408702985,"HURST, TX 76054",32.86,-97.18
76063,0.5868152683,"MANSFIELD, TX 76063",32.58,-97.13
76092,0.763829928,"SOUTHLAKE, TX 76092",32.95,-97.15
76107,0.7196900946,"FORT WORTH, TX 76107",32.74,-97.38
76109,0.6281909121,"FORT WORTH, TX 76109",32.7,-97.38
76116,0.5895815422,"FORT WORTH, TX 76116",32.72,-97.45
76132,0.6991897023,"FORT WORTH, TX 76132",32.67,-97.41
76137,0.5792236038,"FORT WORTH, TX 76137",32.86,-97.29
76180,0.527379504,"NORTH RICHLAND HILLS, TX 76180",32.84,-97.22
76205,0.5226296347,"DENTON, TX 76205",33.19,-97.13
76248,0.749906975,"KELLER, TX 76248",32.92,-97.23
76262,0.5146442625,"ROANOKE, TX 76262",33,-97.22
77002,0.5127538628,"HOUSTON, TX 77002",29.76,-95.37
77004,0.5497954041,"HOUSTON, TX 77004",29.73,-95.36
77005,0.7184781131,"HOUSTON, TX 77005",29.72,-95.43
77006,0.5265402045,"HOUSTON, TX 77006",29.74,-95.39
77007,0.631299288,"HOUSTON, TX 77007",29.77,-95.4
77008,0.72079077,"HOUSTON, TX 77008",29.8,-95.41
77018,0.5084829596,"HOUSTON, TX 77018",29.83,-95.42
77019,0.6804113009,"HOUSTON, TX 77019",29.75,-95.4
77024,0.7561857031,"HOUSTON, TX 77024",29.78,-95.52
77027,1,"HOUSTON, TX 77027",29.74,-95.45
77040,0.5211988367,"HOUSTON, TX 77040",29.87,-95.53
77041,0.5321170246,"HOUSTON, TX 77041",29.86,-95.57
77042,0.834511741,"HOUSTON, TX 77042",29.74,-95.56
77055,0.5579054391,"HOUSTON, TX 77055",29.8,-95.5
77056,0.9492034515,"HOUSTON, TX 77056",29.74,-95.47
77057,0.9598879298,"HOUSTON, TX 77057",29.74,-95.49
77058,0.5960842996,"HOUSTON, TX 77058",29.55,-95.1
77063,0.6642048629,"HOUSTON, TX 77063",29.74,-95.52
77064,0.6193909229,"HOUSTON, TX 77064",29.93,-95.55
77069,0.5664187791,"HOUSTON, TX 77069",29.99,-95.52
77070,0.6606239093,"HOUSTON, TX 77070",29.97,-95.57
77077,0.8675210478,"HOUSTON, TX 77077",29.75,-95.61
77079,0.749429862,"HOUSTON, TX 77079",29.78,-95.61
77082,0.6754437078,"HOUSTON, TX 77082",29.72,-95.63
77084,0.6958028167,"HOUSTON, TX 77084",29.84,-95.66
77095,0.6051198269,"HOUSTON, TX 77095",29.91,-95.65
77096,0.6414039505,"HOUSTON, TX 77096",29.68,-95.48
77098,0.5415901967,"HOUSTON, TX 77098",29.74,-95.41
77304,0.5569492558,"CONROE, TX 77304",30.33,-95.51
77346,0.5911922237,"HUMBLE, TX 77346",30,-95.17
77375,0.6077269844,"TOMBALL, TX 77375",30.09,-95.6
77379,0.8338430713,"SPRING, TX 77379",30.03,-95.53
77380,0.7534983742,"SPRING, TX 77380",30.14,-95.47
77381,0.5740553156,"SPRING, TX 77381",30.18,-95.5
77388,0.6079308068,"SPRING, TX 77388",30.06,-95.46
77401,0.8077697915,"BELLAIRE, TX 77401",29.71,-95.46
77406,0.7088550832,"RICHMOND, TX 77406",29.63,-95.77
77450,0.6791658016,"KATY, TX 77450",29.76,-95.74
77459,0.6954249811,"MISSOURI CITY, TX 77459",29.55,-95.54
77477,0.5426921293,"STAFFORD, TX 77477",29.62,-95.57
77478,0.8801052382,"SUGAR LAND, TX 77478",29.61,-95.61
77479,0.7722691039,"SUGAR LAND, TX 77479",29.57,-95.64
77494,0.6237857771,"KATY, TX 77494",29.74,-95.81
77546,0.5401668046,"FRIENDSWOOD, TX 77546",29.52,-95.19
77571,0.5148539787,"LA PORTE, TX 77571",29.67,-95.03
77573,0.645245007,"LEAGUE CITY, TX 77573",29.5,-95.09
77581,0.5910368111,"PEARLAND, TX 77581",29.56,-95.27
77584,0.7383704855,"PEARLAND, TX 77584",29.55,-95.36
77586,0.5019169851,"SEABROOK, TX 77586",29.58,-95.03
77598,0.5262249364,"WEBSTER, TX 77598",29.54,-95.14
78006,0.6679361498,"BOERNE, TX 78006",29.81,-98.72
78023,0.5952231244,"HELOTES, TX 78023",29.6,-98.71
78130,0.5850877522,"NEW BRAUNFELS, TX 78130",29.7,-98.11
78209,0.7386350088,"SAN ANTONIO, TX 78209",29.49,-98.46
78212,0.599520689,"SAN ANTONIO, TX 78212",29.46,-98.49
78213,0.5952599719,"SAN ANTONIO, TX 78213",29.51,-98.52
78216,0.945827636,"SAN ANTONIO, TX 78216",29.53,-98.49
78217,0.6330353046,"SAN ANTONIO, TX 78217",29.54,-98.42
78218,0.5595139877,"SAN ANTONIO, TX 78218",29.49,-98.4
78229,0.5490707031,"SAN ANTONIO, TX 78229",29.5,-98.57
78230,0.9126446688,"SAN ANTONIO, TX 78230",29.54,-98.55
78231,0.5733743534,"SAN ANTONIO, TX 78231",29.58,-98.54
78232,0.8701295526,"SAN ANTONIO, TX 78232",29.59,-98.47
78233,0.5195556227,"SAN ANTONIO, TX 78233",29.55,-98.36
78238,0.5967153249,"SAN ANTONIO, TX 78238",29.48,-98.61
78240,0.7042297367,"SAN ANTONIO, TX 78240",29.52,-98.61
78247,0.6035108997,"SAN ANTONIO, TX 78247",29.58,-98.41
78248,0.7218359951,"SAN ANTONIO, TX 78248",29.59,-98.53
78249,0.8363954013,"SAN ANTONIO, TX 78249",29.57,-98.61
78250,0.5001348701,"SAN ANTONIO, TX 78250",29.51,-98.67
78251,0.5752906506,"SAN ANTONIO, TX 78251",29.46,-98.67
78254,0.5120153532,"SAN ANTONIO, TX 78254",29.52,-98.7
78256,0.5134850122,"SAN ANTONIO, TX 78256",29.62,-98.63
78257,0.7105499462,"SAN ANTONIO, TX 78257",29.66,-98.61
78258,1,"SAN ANTONIO, TX 78258",29.64,-98.49
78613,0.8106715851,"CEDAR PARK, TX 78613",30.5,-97.83
78626,0.5284822258,"GEORGETOWN, TX 78626",30.64,-97.65
78628,0.6054932031,"GEORGETOWN, TX 78628",30.65,-97.72
78641,0.50179889,"LEANDER, TX 78641",30.55,-97.86
78660,0.7333911173,"PFLUGERVILLE, TX 78660",30.45,-97.62
78664,0.7617782505,"ROUND ROCK, TX 78664",30.51,-97.65
78666,0.6759498937,"SAN MARCOS, TX 78666",29.87,-97.94
78666,0.6096665727,"SAN MARCOS, TX 78666",29.87,-97.94
78681,0.8508483786,"ROUND ROCK, TX 78681",30.52,-97.72
78701,0.838630569,"AUSTIN, TX 78701",30.27,-97.74
78703,0.6303558614,"AUSTIN, TX 78703",30.29,-97.76
78704,0.7387261713,"AUSTIN, TX 78704",30.24,-97.76
78705,0.6440287825,"AUSTIN, TX 78705",30.29,-97.74
78727,0.5690609146,"AUSTIN, TX 78727",30.43,-97.71
78729,0.507890179,"AUSTIN, TX 78729",30.45,-97.76
78730,0.7486195039,"AUSTIN, TX 78730",30.36,-97.83
78731,0.9367268836,"AUSTIN, TX 78731",30.35,-97.76
78734,0.6007985707,"AUSTIN, TX 78734",30.38,-97.96
78735,0.6933374063,"AUSTIN, TX 78735",30.25,-97.84
78738,0.6715477074,"AUSTIN, TX 78738",30.32,-97.96
78745,0.5583617114,"AUSTIN, TX 78745",30.21,-97.8
78746,1,"AUSTIN, TX 78746",30.29,-97.81
78750,0.7317244458,"AUSTIN, TX 78750",30.44,-97.8
78753,0.5550574132,"AUSTIN, TX 78753",30.38,-97.68
78754,0.5605565984,"AUSTIN, TX 78754",30.36,-97.64
78757,0.648577282,"AUSTIN, TX 78757",30.35,-97.73
78758,0.5698499771,"AUSTIN, TX 78758",30.38,-97.7
78759,0.8972224928,"AUSTIN, TX 78759",30.4,-97.76
80002,0.5179183051,"ARVADA, CO 80002",39.8,-105.09
80003,0.6717266882,"ARVADA, CO 80003",39.83,-105.06
80004,0.5136899071,"ARVADA, CO 80004",39.81,-105.12
80005,0.5807339795,"ARVADA, CO 80005",39.84,-105.12
80011,0.7286553422,"AURORA, CO 80011",39.74,-104.81
80012,0.5275733162,"AURORA, CO 80012",39.7,-104.84
80013,0.6513699575,"AURORA, CO 80013",39.66,-104.78
80014,0.75086831,"AURORA, CO 80014",39.66,-104.84
80015,0.6134639716,"AURORA, CO 80015",39.62,-104.77
80016,0.6728969742,"AURORA, CO 80016",39.6,-104.73
80020,0.8807540287,"BROOMFIELD, CO 80020",39.92,-105.07
80021,0.8489765505,"BROOMFIELD, CO 80021",39.89,-105.11
80022,0.6341897085,"COMMERCE CITY, CO 80022",39.86,-104.87
80027,0.7298945572,"LOUISVILLE, CO 80027",39.96,-105.15
80031,0.6781293457,"WESTMINSTER, CO 80031",39.87,-105.04
80033,0.7573213291,"WHEAT RIDGE, CO 80033",39.77,-105.1
80104,0.6671935652,"CASTLE ROCK, CO 80104",39.36,-104.84
80108,0.5637908092,"CASTLE ROCK, CO 80108",39.45,-104.87
80110,0.6262273729,"ENGLEWOOD, CO 80110",39.64,-105.01
80111,0.9541740998,"ENGLEWOOD, CO 80111",39.61,-104.88
80112,0.937043114,"ENGLEWOOD, CO 80112",39.58,-104.87
80113,0.6006181302,"ENGLEWOOD, CO 80113",39.65,-104.97
80120,0.6560035593,"LITTLETON, CO 80120",39.6,-105.01
80121,0.5297560152,"LITTLETON, CO 80121",39.61,-104.96
80122,0.7146863969,"LITTLETON, CO 80122",39.58,-104.96
80123,0.8343205619,"LITTLETON, CO 80123",39.62,-105.07
80124,0.9219754921,"LONE TREE, CO 80124",39.54,-104.89
80126,0.6499439029,"LITTLETON, CO 80126",39.54,-104.96
80127,0.84694571,"LITTLETON, CO 80127",39.59,-105.13
80129,0.7333273503,"LITTLETON, CO 80129",39.54,-105.01
80134,0.9755415409,"PARKER, CO 80134",39.51,-104.79
80138,0.5481315004,"PARKER, CO 80138",39.52,-104.71
80203,0.8552116477,"DENVER, CO 80203",39.73,-104.98
80205,0.6557485755,"DENVER, CO 80205",39.76,-104.97
80206,1,"DENVER, CO 80206",39.73,-104.95
80209,0.9657312394,"DENVER, CO 80209",39.71,-104.97
80210,0.7617256078,"DENVER, CO 80210",39.68,-104.96
80211,0.7111335386,"DENVER, CO 80211",39.77,-105.02
80215,0.6381009005,"DENVER, CO 80215",39.74,-105.11
80218,0.7695003884,"DENVER, CO 80218",39.73,-104.97
80220,0.8003426927,"DENVER, CO 80220",39.73,-104.92
80221,0.5000630799,"DENVER, CO 80221",39.82,-105.01
80222,0.717636257,"DENVER, CO 80222",39.67,-104.93
80224,0.7368735535,"DENVER, CO 80224",39.69,-104.91
80226,0.6529961769,"DENVER, CO 80226",39.71,-105.09
80227,0.679075732,"DENVER, CO 80227",39.67,-105.09
80228,0.8069094559,"DENVER, CO 80228",39.69,-105.15
80229,0.5981487046,"DENVER, CO 80229",39.86,-104.96
80230,0.7251313705,"DENVER, CO 80230",39.72,-104.9
80231,0.6308232349,"DENVER, CO 80231",39.67,-104.89
80233,0.5692067456,"DENVER, CO 80233",39.9,-104.95
80234,0.6497569916,"DENVER, CO 80234",39.91,-105.01
80235,0.54249557,"DENVER, CO 80235",39.65,-105.09
80237,0.670825818,"DENVER, CO 80237",39.64,-104.9
80239,0.547227143,"DENVER, CO 80239",39.79,-104.83
80241,0.5654314915,"THORNTON, CO 80241",39.93,-104.95
80246,0.6636315625,"DENVER, CO 80246",39.71,-104.93
80247,0.5114669681,"DENVER, CO 80247",39.7,-104.89
80303,0.5641016273,"BOULDER, CO 80303",40,-105.21
80401,0.8410997759,"GOLDEN, CO 80401",39.74,-105.2
80439,0.7680455202,"EVERGREEN, CO 80439",39.65,-105.38
80516,0.5670395197,"ERIE, CO 80516",40.05,-105.03
80601,0.5742765391,"BRIGHTON, CO 80601",39.97,-104.8
84020,1,"DRAPER, UT 84020",40.51,-111.87
84065,0.5796063158,"RIVERTON, UT 84065",40.5,-111.95
84070,0.544454898,"SANDY, UT 84070",40.58,-111.89
84088,0.5402966075,"WEST JORDAN, UT 84088",40.6,-111.97
84093,0.504568481,"SANDY, UT 84093",40.6,-111.83
84094,0.5465357859,"SANDY, UT 84094",40.57,-111.86
84095,0.7404110623,"SOUTH JORDAN, UT 84095",40.56,-111.97
84102,0.6227271153,"SALT LAKE CITY, UT 84102",40.76,-111.86
84103,0.5469310949,"SALT LAKE CITY, UT 84103",40.78,-111.88
84106,0.6892816399,"SALT LAKE CITY, UT 84106",40.71,-111.86
84107,0.6593409985,"SALT LAKE CITY, UT 84107",40.66,-111.88
84109,0.5149096858,"SALT LAKE CITY, UT 84109",40.71,-111.8
84111,0.5727660178,"SALT LAKE CITY, UT 84111",40.76,-111.88
84117,0.5938138214,"SALT LAKE CITY, UT 84117",40.66,-111.84
84118,0.5590792594,"SALT LAKE CITY, UT 84118",40.65,-112
84119,0.6041787917,"SALT LAKE CITY, UT 84119",40.7,-111.95
84121,0.7282385242,"SALT LAKE CITY, UT 84121",40.62,-111.8
84123,0.6612548388,"SALT LAKE CITY, UT 84123",40.66,-111.92
84124,0.5561633398,"SALT LAKE CITY, UT 84124",40.68,-111.82
85012,0.781731353,"PHOENIX, AZ 85012",33.51,-112.07
85013,0.5527947762,"PHOENIX, AZ 85013",33.51,-112.08
85014,0.5508675106,"PHOENIX, AZ 85014",33.51,-112.06
85016,0.6758073172,"PHOENIX, AZ 85016",33.51,-112.03
85018,0.8514967786,"PHOENIX, AZ 85018",33.5,-111.99
85020,0.7387987787,"PHOENIX, AZ 85020",33.56,-112.06
85021,0.6443279492,"PHOENIX, AZ 85021",33.56,-112.09
85022,0.5335338205,"PHOENIX, AZ 85022",33.63,-112.05
85027,0.5155136525,"PHOENIX, AZ 85027",33.67,-112.11
85028,0.6552391112,"PHOENIX, AZ 85028",33.58,-112.01
85029,0.5633975811,"PHOENIX, AZ 85029",33.6,-112.12
85032,0.7040744087,"PHOENIX, AZ 85032",33.62,-112
85044,0.5934963722,"PHOENIX, AZ 85044",33.33,-111.99
85048,0.6965269142,"PHOENIX, AZ 85048",33.3,-112.02
85050,0.5095048914,"PHOENIX, AZ 85050",33.68,-112
85051,0.5444961556,"PHOENIX, AZ 85051",33.56,-112.13
85086,0.7044959713,"PHOENIX, AZ 85086",33.84,-112.12
85201,0.5019437184,"MESA, AZ 85201",33.43,-111.85
85202,0.6896095258,"MESA, AZ 85202",33.38,-111.88
85203,0.5132574663,"MESA, AZ 85203",33.44,-111.8
85204,0.6634889438,"MESA, AZ 85204",33.4,-111.78
85205,0.5491765559,"MESA, AZ 85205",33.43,-111.72
85206,0.6124075406,"MESA, AZ 85206",33.4,-111.72
85210,0.6869703655,"MESA, AZ 85210",33.39,-111.84
85224,0.753182142,"CHANDLER, AZ 85224",33.33,-111.87
85225,0.7214427903,"CHANDLER, AZ 85225",33.32,-111.83
85226,0.5248376497,"CHANDLER, AZ 85226",33.3,-111.94
85233,0.6934367711,"GILBERT, AZ 85233",33.35,-111.81
85234,0.7275962915,"GILBERT, AZ 85234",33.36,-111.74
85248,0.6909487492,"CHANDLER, AZ 85248",33.22,-111.86
85250,0.5094054423,"SCOTTSDALE, AZ 85250",33.52,-111.9
85251,0.7976282217,"SCOTTSDALE, AZ 85251",33.49,-111.92
85253,0.8618668422,"PARADISE VALLEY, AZ 85253",33.54,-111.96
85254,0.9229462579,"SCOTTSDALE, AZ 85254",33.62,-111.95
85255,0.8564877743,"SCOTTSDALE, AZ 85255",33.68,-111.87
85258,0.9189732035,"SCOTTSDALE, AZ 85258",33.57,-111.89
85259,0.5604523777,"SCOTTSDALE, AZ 85259",33.59,-111.82
85260,1,"SCOTTSDALE, AZ 85260",33.61,-111.88
85281,0.7363503324,"TEMPE, AZ 85281",33.43,-111.93
85282,0.8471336555,"TEMPE, AZ 85282",33.39,-111.93
85283,0.5527285148,"TEMPE, AZ 85283",33.37,-111.93
85284,0.6546195788,"TEMPE, AZ 85284",33.34,-111.93
85296,0.6731066166,"GILBERT, AZ 85296",33.33,-111.74
85297,0.5108009168,"GILBERT, AZ 85297",33.28,-111.73
85302,0.5567149595,"GLENDALE, AZ 85302",33.57,-112.18
85306,0.6158690147,"GLENDALE, AZ 85306",33.62,-112.18
85308,0.8468068802,"GLENDALE, AZ 85308",33.66,-112.18
85374,0.6452281029,"SURPRISE, AZ 85374",33.64,-112.38
85375,0.6523081058,"SUN CITY WEST, AZ 85375",33.67,-112.36
85381,0.5425325828,"PEORIA, AZ 85381",33.61,-112.23
85382,0.5565102547,"PEORIA, AZ 85382",33.65,-112.25
85704,0.9511621722,"TUCSON, AZ 85704",32.33,-110.99
85705,0.7301981679,"TUCSON, AZ 85705",32.26,-110.99
85705,0.5578922745,"TUCSON, AZ 85705",32.26,-110.99
85706,0.5184034095,"TUCSON, AZ 85706",32.15,-110.94
85710,0.9872044905,"TUCSON, AZ 85710",32.21,-110.83
85711,0.940555775,"TUCSON, AZ 85711",32.22,-110.89
85712,0.9189395937,"TUCSON, AZ 85712",32.25,-110.89
85713,0.5561307148,"TUCSON, AZ 85713",32.19,-110.98
85715,1,"TUCSON, AZ 85715",32.25,-110.83
85716,0.7825006051,"TUCSON, AZ 85716",32.24,-110.92
85718,0.9961977633,"TUCSON, AZ 85718",32.31,-110.92
85719,0.9753270612,"TUCSON, AZ 85719",32.24,-110.95
85730,0.6765101247,"TUCSON, AZ 85730",32.18,-110.81
85737,0.8373350724,"TUCSON, AZ 85737",32.41,-110.98
85737,0.6360320736,"TUCSON, AZ 85737",32.41,-110.98
85741,0.8535519302,"TUCSON, AZ 85741",32.33,-111.04
85742,0.7646916899,"TUCSON, AZ 85742",32.38,-111.05
85743,0.6850326645,"TUCSON, AZ 85743",32.34,-111.15
85745,0.7374220513,"TUCSON, AZ 85745",32.24,-111.02
85749,0.5679012596,"TUCSON, AZ 85749",32.28,-110.77
85750,0.5888847007,"TUCSON, AZ 85750",32.29,-110.84
85755,0.5512109406,"TUCSON, AZ 85755",32.45,-110.98
89012,0.553132562,"HENDERSON, NV 89012",36.02,-115.05
89014,0.6383216492,"HENDERSON, NV 89014",36.06,-115.06
89015,0.5734746294,"HENDERSON, NV 89015",36.03,-114.97
89031,0.6205191536,"NORTH LAS VEGAS, NV 89031",36.26,-115.17
89032,0.5074440623,"NORTH LAS VEGAS, NV 89032",36.23,-115.17
89052,1,"HENDERSON, NV 89052",35.98,-115.1
89074,0.7820396357,"HENDERSON, NV 89074",36.04,-115.08
89084,0.5788800423,"NORTH LAS VEGAS, NV 89084",36.29,-115.18
89102,0.52273618,"LAS VEGAS, NV 89102",36.15,-115.18
89103,0.538325378,"LAS VEGAS, NV 89103",36.11,-115.22
89104,0.5228204729,"LAS VEGAS, NV 89104",36.15,-115.11
89108,0.548379813,"LAS VEGAS, NV 89108",36.21,-115.22
89113,0.7225594948,"LAS VEGAS, NV 89113",36.06,-115.26
89117,0.8271343337,"LAS VEGAS, NV 89117",36.14,-115.28
89118,0.7340265907,"LAS VEGAS, NV 89118",36.08,-115.21
89119,0.5002270469,"LAS VEGAS, NV 89119",36.08,-115.14
89120,0.6709781043,"LAS VEGAS, NV 89120",36.08,-115.09
89121,0.6562083433,"LAS VEGAS, NV 89121",36.12,-115.09
89123,0.6205941847,"LAS VEGAS, NV 89123",36.03,-115.15
89128,0.7082466651,"LAS VEGAS, NV 89128",36.19,-115.27
89129,0.6547656368,"LAS VEGAS, NV 89129",36.23,-115.29
89130,0.5772069105,"LAS VEGAS, NV 89130",36.26,-115.23
89134,0.5564005707,"LAS VEGAS, NV 89134",36.2,-115.31
89135,0.7148689129,"LAS VEGAS, NV 89135",36.12,-115.33
89139,0.5277810966,"LAS VEGAS, NV 89139",36.04,-115.21
89144,0.537910801,"LAS VEGAS, NV 89144",36.18,-115.33
89145,0.5988260622,"LAS VEGAS, NV 89145",36.17,-115.27
89146,0.6926982212,"LAS VEGAS, NV 89146",36.14,-115.22
89147,0.7360518973,"LAS VEGAS, NV 89147",36.11,-115.28
89148,0.7592943092,"LAS VEGAS, NV 89148",36.06,-115.29
89149,0.6219625255,"LAS VEGAS, NV 89149",36.28,-115.29
89178,0.5301657539,"LAS VEGAS, NV 89178",36.01,-115.28
90024,0.7767546078,"LOS ANGELES, CA 90024",34.06,-118.44
90025,0.7392802933,"LOS ANGELES, CA 90025",34.05,-118.45
90027,0.5093226254,"LOS ANGELES, CA 90027",34.11,-118.29
90035,0.6811155252,"LOS ANGELES, CA 90035",34.05,-118.38
90036,0.8380941191,"LOS ANGELES, CA 90036",34.07,-118.35
90045,0.788985179,"LOS ANGELES, CA 90045",33.96,-118.4
90046,0.5169569583,"LOS ANGELES, CA 90046",34.1,-118.36
90048,0.6879597143,"LOS ANGELES, CA 90048",34.07,-118.37
90049,0.6084745554,"LOS ANGELES, CA 90049",34.07,-118.48
90064,0.7236229534,"LOS ANGELES, CA 90064",34.03,-118.43
90066,0.5443118235,"LOS ANGELES, CA 90066",34,-118.43
90068,0.5222502032,"LOS ANGELES, CA 90068",34.12,-118.34
90069,0.7339770799,"WEST HOLLYWOOD, CA 90069",34.09,-118.38
90210,1,"BEVERLY HILLS, CA 90210",34.08,-118.41
90211,0.5555678167,"BEVERLY HILLS, CA 90211",34.07,-118.38
90212,0.5941706102,"BEVERLY HILLS, CA 90212",34.06,-118.4
90265,0.6441128247,"MALIBU, CA 90265",34.05,-118.82
90266,0.5347825612,"MANHATTAN BEACH, CA 90266",33.89,-118.4
90272,0.5513179914,"PACIFIC PALISADES, CA 90272",34.05,-118.53
90292,0.5968812108,"MARINA DEL REY, CA 90292",33.98,-118.46
90404,0.5247921889,"SANTA MONICA, CA 90404",34.03,-118.47
90503,0.5686314108,"TORRANCE, CA 90503",33.84,-118.35
90505,0.6764523017,"TORRANCE, CA 90505",33.81,-118.35
90630,0.5293094602,"CYPRESS, CA 90630",33.82,-118.04
90631,0.5797869149,"LA HABRA, CA 90631",33.94,-117.95
90712,0.5118007317,"LAKEWOOD, CA 90712",33.85,-118.15
91001,0.5208788912,"ALTADENA, CA 91001",34.19,-118.14
91016,0.5377278633,"MONROVIA, CA 91016",34.14,-118
91101,0.5037420975,"PASADENA, CA 91101",34.15,-118.14
91105,0.7191646863,"PASADENA, CA 91105",34.14,-118.16
91106,0.6391775754,"PASADENA, CA 91106",34.14,-118.13
91107,0.7094052969,"PASADENA, CA 91107",34.15,-118.09
91301,0.5566787896,"AGOURA HILLS, CA 91301",34.14,-118.76
91302,0.5880310589,"CALABASAS, CA 91302",34.13,-118.67
91304,0.5876409638,"CANOGA PARK, CA 91304",34.22,-118.62
91307,0.5265609996,"WEST HILLS, CA 91307",34.2,-118.64
91311,0.8873161638,"CHATSWORTH, CA 91311",34.26,-118.6
91311,0.6099407459,"CHATSWORTH, CA 91311",34.26,-118.6
91316,0.5934607096,"ENCINO, CA 91316",34.17,-118.52
91320,0.7252922805,"NEWBURY PARK, CA 91320",34.18,-118.94
91355,0.535633939,"VALENCIA, CA 91355",34.41,-118.57
91356,0.6219002461,"TARZANA, CA 91356",34.16,-118.54
91360,0.8639250891,"THOUSAND OAKS, CA 91360",34.21,-118.88
91361,0.7301874025,"WESTLAKE VILLAGE, CA 91361",34.14,-118.85
91361,0.5044708584,"WESTLAKE VILLAGE, CA 91361",34.14,-118.85
91362,1,"THOUSAND OAKS, CA 91362",34.18,-118.82
91362,0.6901159022,"THOUSAND OAKS, CA 91362",34.18,-118.82
91364,0.6353903384,"WOODLAND HILLS, CA 91364",34.16,-118.6
91367,0.6909336863,"WOODLAND HILLS, CA 91367",34.18,-118.62
91403,0.6333229518,"SHERMAN OAKS, CA 91403",34.15,-118.46
91423,0.5202452034,"SHERMAN OAKS, CA 91423",34.15,-118.43
91436,0.7409121192,"ENCINO, CA 91436",34.16,-118.49
91604,0.6099962985,"STUDIO CITY, CA 91604",34.14,-118.39
91765,0.5186079371,"DIAMOND BAR, CA 91765",34,-117.82
91773,0.5340678764,"SAN DIMAS, CA 91773",34.1,-117.81
91910,0.6126410614,"CHULA VISTA, CA 91910",32.64,-117.06
91941,0.5360759626,"LA MESA, CA 91941",32.76,-117
92008,0.7064415477,"CARLSBAD, CA 92008",33.16,-117.33
92009,0.6787301061,"CARLSBAD, CA 92009",33.1,-117.25
92011,0.6149026104,"CARLSBAD, CA 92011",33.11,-117.3
92014,0.6656597923,"DEL MAR, CA 92014",32.96,-117.26
92020,0.5467306054,"EL CAJON, CA 92020",32.79,-116.97
92024,0.7623658921,"ENCINITAS, CA 92024",33.05,-117.27
92025,0.7096004545,"ESCONDIDO, CA 92025",33.11,-117.07
92037,1,"LA JOLLA, CA 92037",32.84,-117.26
92054,0.5311334664,"OCEANSIDE, CA 92054",33.2,-117.37
92056,0.5978512033,"OCEANSIDE, CA 92056",33.2,-117.28
92064,0.6532982002,"POWAY, CA 92064",32.97,-117.04
92069,0.5523984066,"SAN MARCOS, CA 92069",33.16,-117.16
92071,0.5205314333,"SANTEE, CA 92071",32.85,-116.99
92078,0.59005139,"SAN MARCOS, CA 92078",33.13,-117.19
92081,0.6253717753,"VISTA, CA 92081",33.17,-117.24
92084,0.5421391063,"VISTA, CA 92084",33.22,-117.21
92101,0.6217080945,"SAN DIEGO, CA 92101",32.72,-117.16
92103,0.7018426063,"SAN DIEGO, CA 92103",32.75,-117.17
92106,0.6342227987,"SAN DIEGO, CA 92106",32.72,-117.23
92108,0.8216981472,"SAN DIEGO, CA 92108",32.77,-117.14
92110,0.5906846905,"SAN DIEGO, CA 92110",32.77,-117.2
92111,0.5663875527,"SAN DIEGO, CA 92111",32.8,-117.17
92117,0.6154416119,"SAN DIEGO, CA 92117",32.82,-117.2
92120,0.6594615878,"SAN DIEGO, CA 92120",32.79,-117.07
92121,0.932611768,"SAN DIEGO, CA 92121",32.9,-117.21
92122,0.767348757,"SAN DIEGO, CA 92122",32.86,-117.19
92123,0.9283257637,"SAN DIEGO, CA 92123",32.81,-117.14
92126,0.7590072227,"SAN DIEGO, CA 92126",32.91,-117.14
92127,0.7057187647,"SAN DIEGO, CA 92127",33.01,-117.12
92128,0.6428912777,"SAN DIEGO, CA 92128",33,-117.07
92130,0.9068312793,"SAN DIEGO, CA 92130",32.95,-117.21
92131,0.597918548,"SAN DIEGO, CA 92131",32.91,-117.09
92612,0.5666153176,"IRVINE, CA 92612",33.66,-117.83
92614,0.616444946,"IRVINE, CA 92614",33.68,-117.83
92626,0.7423037132,"COSTA MESA, CA 92626",33.68,-117.91
92630,0.629171552,"LAKE FOREST, CA 92630",33.64,-117.69
92648,0.6194354214,"HUNTINGTON BEACH, CA 92648",33.68,-118
92653,0.6288138457,"LAGUNA HILLS, CA 92653",33.6,-117.7
92656,0.6441262929,"ALISO VIEJO, CA 92656",33.58,-117.73
92660,0.9448053392,"NEWPORT BEACH, CA 92660",33.63,-117.87
92672,0.6004612739,"SAN CLEMENTE, CA 92672",33.43,-117.61
92673,0.593718304,"SAN CLEMENTE, CA 92673",33.46,-117.62
92677,0.5523378075,"LAGUNA NIGUEL, CA 92677",33.54,-117.7
92683,0.5169925382,"WESTMINSTER, CA 92683",33.75,-117.99
92688,0.5229732021,"RANCHO SANTA MARGARITA, CA 92688",33.63,-117.61
92691,0.7128155426,"MISSION VIEJO, CA 92691",33.61,-117.67
92692,0.5457278174,"MISSION VIEJO, CA 92692",33.61,-117.64
92705,0.7067954596,"SANTA ANA, CA 92705",33.75,-117.83
92708,0.5618852266,"FOUNTAIN VALLEY, CA 92708",33.71,-117.95
92780,0.5587308624,"TUSTIN, CA 92780",33.73,-117.82
92806,0.5452830575,"ANAHEIM, CA 92806",33.84,-117.88
92807,0.5780869484,"ANAHEIM, CA 92807",33.85,-117.79
92821,0.636423262,"BREA, CA 92821",33.92,-117.89
92867,0.5373247767,"ORANGE, CA 92867",33.81,-117.83
92870,0.5297985167,"PLACENTIA, CA 92870",33.88,-117.86
92886,0.5650125832,"YORBA LINDA, CA 92886",33.89,-117.8
93003,0.8431437195,"VENTURA, CA 93003",34.27,-119.22
93010,0.8568454025,"CAMARILLO, CA 93010",34.23,-119.05
93012,0.8557523443,"CAMARILLO, CA 93012",34.22,-118.99
93021,0.6485992281,"MOORPARK, CA 93021",34.29,-118.88
93030,0.7045169707,"OXNARD, CA 93030",34.21,-119.17
93036,0.7873921989,"OXNARD, CA 93036",34.23,-119.18
93063,0.7680831641,"SIMI VALLEY, CA 93063",34.28,-118.7
93065,0.9959093624,"SIMI VALLEY, CA 93065",34.27,-118.77
93551,0.5875828835,"PALMDALE, CA 93551",34.6,-118.19
94010,0.7437141767,"BURLINGAME, CA 94010",37.57,-122.36
94014,0.5114378769,"DALY CITY, CA 94014",37.7,-122.45
94015,0.7392066493,"DALY CITY, CA 94015",37.68,-122.48
94022,0.6601245987,"LOS ALTOS, CA 94022",37.38,-122.13
94025,0.9218467452,"MENLO PARK, CA 94025",37.45,-122.18
94027,0.606883747,"ATHERTON, CA 94027",37.46,-122.2
94040,0.6570098958,"MOUNTAIN VIEW, CA 94040",37.38,-122.09
94041,0.6757350702,"MOUNTAIN VIEW, CA 94041",37.39,-122.08
94043,0.9461590727,"MOUNTAIN VIEW, CA 94043",37.41,-122.07
94044,0.6374679546,"PACIFICA, CA 94044",37.62,-122.49
94061,0.5848109479,"REDWOOD CITY, CA 94061",37.46,-122.23
94062,0.5344411809,"REDWOOD CITY, CA 94062",37.45,-122.27
94065,0.8030220988,"REDWOOD CITY, CA 94065",37.53,-122.25
94066,0.7054626187,"SAN BRUNO, CA 94066",37.63,-122.43
94070,0.5815091458,"SAN CARLOS, CA 94070",37.5,-122.27
94080,0.9038754789,"SOUTH SAN FRANCISCO, CA 94080",37.66,-122.43
94085,0.6802299757,"SUNNYVALE, CA 94085",37.39,-122.02
94086,0.9137458059,"SUNNYVALE, CA 94086",37.37,-122.03
94087,0.6599038213,"SUNNYVALE, CA 94087",37.35,-122.04
94102,0.5171826771,"SAN FRANCISCO, CA 94102",37.78,-122.42
94103,0.6088293927,"SAN FRANCISCO, CA 94103",37.77,-122.41
94107,1,"SAN FRANCISCO, CA 94107",37.77,-122.4
94108,0.5163802251,"SAN FRANCISCO, CA 94108",37.79,-122.41
94109,0.9378287471,"SAN FRANCISCO, CA 94109",37.79,-122.42
94110,0.8182375313,"SAN FRANCISCO, CA 94110",37.75,-122.42
94111,0.6872130535,"SAN FRANCISCO, CA 94111",37.8,-122.4
94114,0.5429562646,"SAN FRANCISCO, CA 94114",37.76,-122.44
94115,0.7055162403,"SAN FRANCISCO, CA 94115",37.79,-122.44
94117,0.5485333606,"SAN FRANCISCO, CA 94117",37.77,-122.44
94118,0.5997928272,"SAN FRANCISCO, CA 94118",37.78,-122.46
94123,0.7268267615,"SAN FRANCISCO, CA 94123",37.8,-122.44
94132,0.5457333567,"SAN FRANCISCO, CA 94132",37.72,-122.48
94133,0.6177042535,"SAN FRANCISCO, CA 94133",37.8,-122.41
94134,0.5011047397,"SAN FRANCISCO, CA 94134",37.72,-122.41
94301,0.7015254508,"PALO ALTO, CA 94301",37.44,-122.15
94303,0.6683946281,"PALO ALTO, CA 94303",37.45,-122.13
94303,0.59469573,"PALO ALTO, CA 94303",37.45,-122.13
94306,0.7401177321,"PALO ALTO, CA 94306",37.42,-122.13
94401,0.5706483756,"SAN MATEO, CA 94401",37.57,-122.32
94402,0.9696624347,"SAN MATEO, CA 94402",37.55,-122.33
94403,0.9131418828,"SAN MATEO, CA 94403",37.54,-122.3
94404,0.8184506547,"SAN MATEO, CA 94404",37.55,-122.27
94501,0.7213281378,"ALAMEDA, CA 94501",37.77,-122.26
94502,0.5498576178,"ALAMEDA, CA 94502",37.74,-122.24
94509,0.5969656358,"ANTIOCH, CA 94509",38,-121.81
94513,0.5836963805,"BRENTWOOD, CA 94513",37.93,-121.69
94520,0.5654317017,"CONCORD, CA 94520",37.99,-122.04
94521,0.5720617788,"CONCORD, CA 94521",37.95,-121.97
94523,0.5918290406,"PLEASANT HILL, CA 94523",37.95,-122.07
94526,0.5200185866,"DANVILLE, CA 94526",37.81,-121.99
94530,0.6161349783,"EL CERRITO, CA 94530",37.92,-122.3
94536,0.5323201184,"FREMONT, CA 94536",37.56,-122
94538,0.7693360892,"FREMONT, CA 94538",37.53,-121.97
94539,0.7196889037,"FREMONT, CA 94539",37.52,-121.93
94541,0.6087341335,"HAYWARD, CA 94541",37.68,-122.09
94544,0.5425660935,"HAYWARD, CA 94544",37.64,-122.07
94545,0.6596005161,"HAYWARD, CA 94545",37.64,-122.11
94546,0.5757006857,"CASTRO VALLEY, CA 94546",37.7,-122.08
94547,0.5325527169,"HERCULES, CA 94547",38.01,-122.26
94549,0.5830714614,"LAFAYETTE, CA 94549",37.9,-122.11
94550,0.8846706272,"LIVERMORE, CA 94550",37.65,-121.73
94550,0.7883345064,"LIVERMORE, CA 94550",37.65,-121.73
94551,0.6717674636,"LIVERMORE, CA 94551",37.71,-121.76
94553,0.5832408946,"MARTINEZ, CA 94553",38,-122.12
94560,0.5158422334,"NEWARK, CA 94560",37.54,-122.03
94564,0.5446638042,"PINOLE, CA 94564",38,-122.29
94565,0.5515012875,"PITTSBURG, CA 94565",38.02,-121.91
94566,0.6539420775,"PLEASANTON, CA 94566",37.66,-121.87
94568,0.7206279488,"DUBLIN, CA 94568",37.71,-121.91
94577,0.8113537653,"SAN LEANDRO, CA 94577",37.72,-122.16
94583,0.7470790723,"SAN RAMON, CA 94583",37.75,-121.96
94587,0.556054138,"UNION CITY, CA 94587",37.59,-122.05
94588,0.6959685643,"PLEASANTON, CA 94588",37.69,-121.89
94596,0.7828643336,"WALNUT CREEK, CA 94596",37.89,-122.05
94597,0.6119302396,"WALNUT CREEK, CA 94597",37.92,-122.07
94598,0.7270311531,"WALNUT CREEK, CA 94598",37.92,-122.02
94607,0.5223783547,"OAKLAND, CA 94607",37.81,-122.29
94610,0.6624597503,"OAKLAND, CA 94610",37.81,-122.24
94611,0.5425398322,"OAKLAND, CA 94611",37.83,-122.23
94612,0.5079204278,"OAKLAND, CA 94612",37.81,-122.27
94705,0.5844841265,"BERKELEY, CA 94705",37.86,-122.25
94707,0.5776834404,"BERKELEY, CA 94707",37.89,-122.28
94803,0.5847514389,"EL SOBRANTE, CA 94803",37.97,-122.29
94806,0.6211236072,"SAN PABLO, CA 94806",37.97,-122.34
94901,0.8220831002,"SAN RAFAEL, CA 94901",37.97,-122.51
94903,0.6420922912,"SAN RAFAEL, CA 94903",38.02,-122.55
94939,0.583990992,"LARKSPUR, CA 94939",37.94,-122.53
94941,0.6860387863,"MILL VALLEY, CA 94941",37.9,-122.54
94945,0.6156056956,"NOVATO, CA 94945",38.12,-122.56
94947,0.5161532633,"NOVATO, CA 94947",38.1,-122.59
94949,0.6781390758,"NOVATO, CA 94949",38.06,-122.54
94952,0.6187054528,"PETALUMA, CA 94952",38.24,-122.69
94965,0.5574841231,"SAUSALITO, CA 94965",37.86,-122.5
95008,0.9582806227,"CAMPBELL, CA 95008",37.28,-121.96
95014,0.7940090972,"CUPERTINO, CA 95014",37.32,-122.04
95020,0.9587601002,"GILROY, CA 95020",37.01,-121.57
95023,0.5125556231,"HOLLISTER, CA 95023",36.85,-121.38
95030,0.5147552546,"LOS GATOS, CA 95030",37.23,-121.98
95032,0.7926875118,"LOS GATOS, CA 95032",37.24,-121.95
95035,1,"MILPITAS, CA 95035",37.44,-121.89
95037,0.9479182669,"MORGAN HILL, CA 95037",37.14,-121.66
95050,0.6029345265,"SANTA CLARA, CA 95050",37.35,-121.95
95051,0.779373526,"SANTA CLARA, CA 95051",37.35,-121.98
95054,0.9045791356,"SANTA CLARA, CA 95054",37.39,-121.96
95070,0.6293292447,"SARATOGA, CA 95070",37.27,-122.02
95076,0.7140310163,"WATSONVILLE, CA 95076",36.93,-121.77
95110,0.6152056961,"SAN JOSE, CA 95110",37.34,-121.9
95112,0.6962199114,"SAN JOSE, CA 95112",37.35,-121.88
95118,0.6591063703,"SAN JOSE, CA 95118",37.26,-121.89
95120,0.6120379183,"SAN JOSE, CA 95120",37.21,-121.85
95123,0.7500876334,"SAN JOSE, CA 95123",37.24,-121.83
95124,0.7096813618,"SAN JOSE, CA 95124",37.26,-121.92
95125,0.9338612904,"SAN JOSE, CA 95125",37.29,-121.9
95126,0.7024509999,"SAN JOSE, CA 95126",37.33,-121.92
95127,0.5299612066,"SAN JOSE, CA 95127",37.37,-121.82
95128,0.7082306873,"SAN JOSE, CA 95128",37.32,-121.94
95129,0.6779160757,"SAN JOSE, CA 95129",37.31,-122
95131,0.9036389049,"SAN JOSE, CA 95131",37.39,-121.89
95134,0.6094839549,"SAN JOSE, CA 95134",37.41,-121.94
95138,0.6469950671,"SAN JOSE, CA 95138",37.25,-121.77
95603,0.6397282476,"AUBURN, CA 95603",38.91,-121.08
95608,0.7078764387,"CARMICHAEL, CA 95608",38.63,-121.33
95610,0.545417079,"CITRUS HEIGHTS, CA 95610",38.7,-121.27
95618,0.5913049586,"DAVIS, CA 95618",38.54,-121.71
95624,0.672426575,"ELK GROVE, CA 95624",38.42,-121.36
95628,0.5726396622,"FAIR OAKS, CA 95628",38.65,-121.26
95630,1,"FOLSOM, CA 95630",38.67,-121.15
95661,0.9385095155,"ROSEVILLE, CA 95661",38.74,-121.25
95670,0.810575239,"RANCHO CORDOVA, CA 95670",38.6,-121.28
95677,0.5341652861,"ROCKLIN, CA 95677",38.79,-121.24
95678,0.6939319651,"ROSEVILLE, CA 95678",38.76,-121.29
95691,0.568011956,"WEST SACRAMENTO, CA 95691",38.57,-121.55
95742,0.5125009699,"RANCHO CORDOVA, CA 95742",38.59,-121.21
95747,0.5418658276,"ROSEVILLE, CA 95747",38.77,-121.34
95758,0.7531555278,"ELK GROVE, CA 95758",38.43,-121.44
95762,0.6753372646,"EL DORADO HILLS, CA 95762",38.68,-121.06
95765,0.6480744695,"ROCKLIN, CA 95765",38.81,-121.27
95815,0.5054771515,"SACRAMENTO, CA 95815",38.61,-121.45
95821,0.5704835754,"SACRAMENTO, CA 95821",38.63,-121.38
95823,0.507907886,"SACRAMENTO, CA 95823",38.48,-121.44
95825,0.6563409331,"SACRAMENTO, CA 95825",38.59,-121.4
95826,0.6651854464,"SACRAMENTO, CA 95826",38.55,-121.38
95833,0.5478568929,"SACRAMENTO, CA 95833",38.62,-121.5
95834,0.6348931726,"SACRAMENTO, CA 95834",38.64,-121.51
95864,0.5196868081,"SACRAMENTO, CA 95864",38.59,-121.38
97005,0.6885819187,"BEAVERTON, OR 97005",45.49,-122.8
97006,0.8144777341,"BEAVERTON, OR 97006",45.52,-122.86
97007,0.7999421213,"BEAVERTON, OR 97007",45.47,-122.86
97008,0.6329183573,"BEAVERTON, OR 97008",45.46,-122.8
97015,0.542196377,"CLACKAMAS, OR 97015",45.42,-122.54
97030,0.7154763351,"GRESHAM, OR 97030",45.51,-122.43
97034,0.7578471525,"LAKE OSWEGO, OR 97034",45.41,-122.68
97035,0.7302701076,"LAKE OSWEGO, OR 97035",45.41,-122.73
97045,0.7036543748,"OREGON CITY, OR 97045",45.34,-122.58
97062,0.5197835895,"TUALATIN, OR 97062",45.37,-122.77
97068,0.5199572027,"WEST LINN, OR 97068",45.36,-122.65
97070,0.5754853546,"WILSONVILLE, OR 97070",45.31,-122.77
97086,0.6543479123,"HAPPY VALLEY, OR 97086",45.44,-122.53
97116,0.5242169047,"FOREST GROVE, OR 97116",45.54,-123.13
97123,0.7680915429,"HILLSBORO, OR 97123",45.49,-122.97
97124,0.7881746157,"HILLSBORO, OR 97124",45.54,-122.95
97132,0.7238738862,"NEWBERG, OR 97132",45.31,-122.97
97140,0.695535668,"SHERWOOD, OR 97140",45.35,-122.86
97201,0.7587277402,"PORTLAND, OR 97201",45.51,-122.69
97202,0.6712049745,"PORTLAND, OR 97202",45.48,-122.64
97205,0.5637907578,"PORTLAND, OR 97205",45.52,-122.69
97206,0.5068885981,"PORTLAND, OR 97206",45.48,-122.6
97209,0.5874068543,"PORTLAND, OR 97209",45.53,-122.68
97210,0.5409113672,"PORTLAND, OR 97210",45.54,-122.71
97214,0.6349059642,"PORTLAND, OR 97214",45.51,-122.65
97217,0.5978814735,"PORTLAND, OR 97217",45.58,-122.69
97219,0.6943390511,"PORTLAND, OR 97219",45.46,-122.71
97220,0.5905223992,"PORTLAND, OR 97220",45.55,-122.56
97221,0.6136005225,"PORTLAND, OR 97221",45.5,-122.73
97223,1,"PORTLAND, OR 97223",45.44,-122.78
97224,0.6649073165,"PORTLAND, OR 97224",45.41,-122.79
97225,0.9201188002,"PORTLAND, OR 97225",45.5,-122.77
97229,0.7420673907,"PORTLAND, OR 97229",45.55,-122.81
97230,0.5115467671,"PORTLAND, OR 97230",45.54,-122.51
97232,0.7051449466,"PORTLAND, OR 97232",45.53,-122.64
97239,0.7195082493,"PORTLAND, OR 97239",45.49,-122.69
97267,0.5486871824,"PORTLAND, OR 97267",45.41,-122.62
97304,0.5130525755,"SALEM, OR 97304",44.96,-123.08
98001,0.509129624,"AUBURN, WA 98001",47.31,-122.26
98003,0.6156604145,"FEDERAL WAY, WA 98003",47.31,-122.31
98004,1,"BELLEVUE, WA 98004",47.62,-122.2
98005,0.6404663565,"BELLEVUE, WA 98005",47.61,-122.17
98006,0.6848610582,"BELLEVUE, WA 98006",47.56,-122.15
98007,0.5321655485,"BELLEVUE, WA 98007",47.61,-122.14
98011,0.5168919335,"BOTHELL, WA 98011",47.75,-122.2
98020,0.5240021637,"EDMONDS, WA 98020",47.8,-122.37
98021,0.6040706185,"BOTHELL, WA 98021",47.79,-122.22
98027,0.551110718,"ISSAQUAH, WA 98027",47.52,-122.02
98032,0.533343307,"KENT, WA 98032",47.39,-122.26
98033,0.7401742701,"KIRKLAND, WA 98033",47.68,-122.19
98034,0.640716451,"KIRKLAND, WA 98034",47.72,-122.2
98036,0.6746696793,"LYNNWOOD, WA 98036",47.81,-122.28
98037,0.5441815847,"LYNNWOOD, WA 98037",47.84,-122.29
98052,0.9760043285,"REDMOND, WA 98052",47.68,-122.12
98102,0.5366251777,"SEATTLE, WA 98102",47.63,-122.32
98103,0.6701196362,"SEATTLE, WA 98103",47.67,-122.35
98105,0.5366562675,"SEATTLE, WA 98105",47.66,-122.3
98107,0.6797096494,"SEATTLE, WA 98107",47.67,-122.37
98109,0.7652992683,"SEATTLE, WA 98109",47.63,-122.35
98115,0.5647062922,"SEATTLE, WA 98115",47.68,-122.3
98116,0.5809274139,"SEATTLE, WA 98116",47.57,-122.39
98117,0.5128349403,"SEATTLE, WA 98117",47.69,-122.38
98119,0.6561918296,"SEATTLE, WA 98119",47.64,-122.37
98121,0.7024590321,"SEATTLE, WA 98121",47.62,-122.35
98122,0.5677446126,"SEATTLE, WA 98122",47.61,-122.3
98133,0.525851961,"SEATTLE, WA 98133",47.74,-122.34
98188,0.5968405483,"SEATTLE, WA 98188",47.45,-122.27
98201,0.5165369277,"EVERETT, WA 98201",47.99,-122.2
98208,0.533181618,"EVERETT, WA 98208",47.9,-122.2
98604,0.562654506,"BATTLE GROUND, WA 98604",45.79,-122.53
98607,0.6388457121,"CAMAS, WA 98607",45.61,-122.42
98642,0.5291015869,"RIDGEFIELD, WA 98642",45.8,-122.69
98660,0.5486581394,"VANCOUVER, WA 98660",45.65,-122.69
98661,0.5831578094,"VANCOUVER, WA 98661",45.64,-122.63
98662,0.6690505448,"VANCOUVER, WA 98662",45.67,-122.58
98682,0.6626904119,"VANCOUVER, WA 98682",45.67,-122.51
98683,0.7548918868,"VANCOUVER, WA 98683",45.6,-122.51
98684,0.517747026,"VANCOUVER, WA 98684",45.63,-122.52